"FCLT_BUILDING_HIST_KEY","FISCAL_PERIOD","FCLT_BUILDING_KEY","BUILDING_NUMBER","PARENT_BUILDING_NUMBER","PARENT_BUILDING_NAME","PARENT_BUILDING_NAME_LONG","BUILDING_NAME_LONG","EXT_GROSS_AREA","ASSIGNABLE_AREA","NON_ASSIGNABLE_AREA","SITE","CAMPUS_SECTOR","ACCESS_LEVEL_CODE","ACCESS_LEVEL_NAME","BUILDING_TYPE","OWNERSHIP_TYPE","BUILDING_USE","OCCUPANCY_CLASS","BUILDING_HEIGHT","COST_CENTER_CODE","COST_COLLECTOR_KEY","LATITUDE_WGS","LONGITUDE_WGS","EASTING_X_SPCS","NORTHING_Y_SPCS","BUILDING_SORT","BUILDING_NAMED_FOR","BUILDING_NAME","DATE_BUILT","DATE_ACQUIRED","DATE_OCCUPIED","WAREHOUSE_LOAD_DATE","NUM_OF_ROOMS"
"14S-201505","201505","14S","14S","14","HAYDEN MEMORIAL LIBRARY","Charles Hayden Memorial Library","Charles Hayden Memorial Library (South Wing)",48622.24,34500.48,10286.49,"MIT","MAIN GROUP",2,"2","ACADEMIC","OWNED","AER","(NULL)","","","",,,,,"14S","","HAYDEN MEMORIAL LIBRARY (S)",,,,01-DEC-14,118
"46-201505","201505","46","46","","","","Brain & Cognitive Sciences Complex",418662.59,218518.89,152699.33,"MIT","MAIN GROUP",2,"2","ACADEMIC","OWNED","AER","(NULL)","136.40","1814600","1814600",42.362327773499899,-71.091642943400004,766530.28537900001,2957325.6455700002,"46","","BCSC",25-APR-03,,01-SEP-05,01-DEC-14,1403
"E14-201505","201505","E14","E14","","","","Building E14",173875.21,73792.6,83752.67,"MIT","EAST",2,"2","ACADEMIC","OWNED","AER","(NULL)","","1821400","1821400",42.3604635927,-71.0873324878999,767698.51797199901,2956651.9071800001,"E14","","BUILDING E14",,,,01-DEC-14,341
"E17-201505","201505","E17","E17","","","","Seely G Mudd Building",83518.04,54135.52,21499.9,"MIT","EAST",2,"2","ACADEMIC","OWNED","AER","UGBA3","82.80","1821700","1821700",42.361484389799898,-71.087886250899899,767547.05602999905,2957023.18269999,"E17","SEELY G. MUDD","MUDD BUILDING",31-DEC-32,,06-MAR-75,01-DEC-14,342
"E18-201505","201505","E18","E18","","","","Horace Sayford Ford Building (E18)",113139.11,68988.6,34733.83,"MIT","EAST",2,"2","ACADEMIC","OWNED","AER","UGBI2","88.30","1821800","1821800",42.361766995799897,-71.087792810300002,767571.81186200003,2957126.2919800002,"E18","HORACE SAYFORD FORD JR.","FORD BUILDING (E18)",31-DEC-20,01-MAY-61,01-OCT-64,01-DEC-14,380
"NW12-201505","201505","NW12","NW12","","","","Nuclear Reactor Laboratory",49933.39,34857.85,9710.88,"MIT","NORTHWEST",0,"0","ACADEMIC","OWNED","AER","UGB","47.30","1841200","1841200",42.360103050299898,-71.096863122399895,765123.30905100005,2956508.1999599901,"NW12","","NUCLEAR REACTOR LAB",31-DEC-37,31-DEC-55,31-DEC-55,01-DEC-14,166
"N16B-201505","201505","N16B","N16B","","","","Fire Pump House",1249.72,0,1160.58,"MIT","NORTH",0,"0","SERVICE","OWNED","OTH","UGU","","","",42.361240843600001,-71.094226825899895,765833.84857100004,2956926.2135200002,"N16B","","FIRE PUMP ROOM",,,,01-DEC-14,5
"NE46-201505","201505","NE46","NE46","","","","400 Technology Square",9215.4,7989.19,239.41,"MIT","",2,"2","ACADEMIC","LEASED","AER","(NULL)","0.00","","",,,,,"NE46","","400 TECHNOLOGY SQUARE",25-APR-14,,,01-DEC-14,36
"W13-201505","201505","W13","W13","","","","Bexley Hall",52878.95,39026.29,6156.84,"MIT","WEST",2,"2","RESIDENT","OWNED","DHOA","UGR2","45.80","1345600","1345600",42.358533902600001,-71.093697180500001,765981.69230300002,2955940.4308799901,"W13","","BEXLEY HALL",31-DEC-12,31-DEC-39,01-SEP-39,01-DEC-14,150
"OC19M-201505","201505","OC19M","OC19M","","","","BATES LINAC: Barn",2225.34,2062.22,0,"BATES","OFFCAMPUS",1,"1","ACADEMIC","OWNED","AER","(NULL)","","1876000","1876000",,,,,"OC19M","","BATES LINAC: BARN",,,,01-DEC-14,3
"OC26-201505","201505","OC26","OC26","","","","Haystack Atmospheric Sciences Building",1396.85,1220.02,30.67,"HAY","OFFCAMPUS",1,"1","ACADEMIC","OWNED","AER","UGB","","","",42.618775815100001,-71.490632754700002,658688.02822700003,3050520.56256,"OC26","","HAYSTACK ATMOSPHERIC SCIENCES BUILDING",,,,01-DEC-14,10
"OC31A-201505","201505","OC31A","OC31A","","","","Katahdin Hill 1A",2989.21,2567.45,151.48,"LINC","OFFCAMPUS",1,"1","ACADEMIC","OWNED","OTH","(NULL)","","","",,,,,"OC31A","","KATAHDIN HILL 1A",,,,01-DEC-14,7
"OC36-201505","201505","OC36","OC36","","","","Annex 6",6910.33,4364.63,1851.64,"LINC","OFFCAMPUS",1,"1","ACADEMIC","OWNED","OTH","(NULL)","","","",,,,,"OC36","","ANNEX 6",,,,01-DEC-14,28
"W16-201505","201505","W16","W16","","","","Kresge Auditorium",42145.98,20454.71,17716.79,"MIT","WEST",2,"2","SERVICE","OWNED","STAC","UGA1A3","50.20","1831600","1831600",42.358133831799897,-71.095057906799894,765614.61178499903,2955792.8880799902,"W16","SEBASTIAN S. KRESGE","KRESGE AUDITORIUM",01-MAY-53,,31-DEC-56,01-DEC-14,93
"W20-201505","201505","W20","W20","","","","Julius Adams Stratton Student Center",183162,116165.53,55856.44,"MIT","WEST",2,"2","SERVICE","OWNED","STAC","UGA3M","75.00","1832000","1832000",42.3590424012,-71.094774640200001,765689.59944699903,2956124.3528800001,"W20","JULIUS ADAMS STRATTON","STRATTON STUDENT CENTER",01-SEP-63,,01-OCT-65,01-DEC-14,428
"W61G-201505","201505","W61G","W61G","W61","MACGREGOR HOUSE","Frank S MacGregor House","Frank S MacGregor House (Wing G)",12942.63,9430.07,1289.78,"MIT","WEST",2,"2","RESIDENT","OWNED","DHOA","UGR2","","","",,,,,"W61G","","MACGREGOR HOUSE (G)",,,,01-DEC-14,99
"W70-201505","201505","W70","W70","","","","New West Campus Houses",114930.31,68693.54,32792.85,"MIT","WEST",2,"2","RESIDENT","OWNED","DHOA","UGR2","46.90","1347500","1347500",42.355161090000003,-71.100532316900001,764140.069823,2954702.5842900001,"W70","","NEW HOUSE",01-JUN-74,,31-DEC-76,01-DEC-14,13
"W70G-201505","201505","W70G","W70G","W70","NEW HOUSE","New West Campus Houses","New West Campus Houses (Wing G)",3886.9,1648.29,1972.51,"MIT","WEST",2,"2","RESIDENT","OWNED","DHOA","UGR2","","","",,,,,"W70G","","NEW HOUSE (G)",,,,01-DEC-14,15
"5-201505","201505","5","5","","","","Pratt School Of Naval Architecture And Marine Engineering",80942.35,55225.95,16728.77,"MIT","MAIN GROUP",2,"2","ACADEMIC","OWNED","AER","UGBA3","70.70","1810500","1810500",42.358708761300001,-71.092923465699897,766190.50561899901,2956005.1499100002,"05","CHARLES HERBERT PRATT","PRATT SCHOOL",01-DEC-19,,31-DEC-20,01-DEC-14,275
"50-201505","201505","50","50","","","","Walker Memorial",73703.27,46452.51,20719.31,"MIT","MAIN GROUP",2,"2","SERVICE","OWNED","STAC","UGA3","80.50","1342002","1342002",42.359362410700001,-71.0883196005,767433.66957400006,2956249.3249900001,"50","FRANCIS AMASA WALKER","WALKER MEMORIAL",01-JAN-16,,01-SEP-17,01-DEC-14,200
"12-201505","201505","12","12","","","","Building 12",55403.21,36173.72,14274.26,"MIT","MAIN GROUP",2,"2","ACADEMIC","OWNED","AER","UGB","42.20","1811200","1811200",42.3602054061,-71.091559902100002,766556.43215699901,2956552.3192799902,"12","","BUILDING 12",01-SEP-41,,01-JUL-42,01-DEC-14,242
"32P-201505","201505","32P","32P","","","","Ray and Maria Stata Center Garage",239353.28,219268.15,10269.82,"MIT","MAIN GROUP",2,"2","SERVICE","OWNED","GAR","(NULL)","","1813201","1813201",,,,,"32P","RAY STATA '57","STATA CENTER GARAGE",,,02-JUN-03,01-DEC-14,32
"37-201505","201505","37","37","","","","Ronald E McNair Building",102832.84,56088.11,32519.06,"MIT","MAIN GROUP",2,"2","ACADEMIC","OWNED","AER","UGB","89.70","1813700","1813700",42.360684242200001,-71.093247445399896,766099.50816600001,2956724.6375299902,"37","RONALD E. MCNAIR","MCNAIR BUILDING",01-FEB-66,,31-DEC-69,01-DEC-14,401
"39-201505","201505","39","39","","","","Stanley Gordon Brown Building",75808.22,39408.97,29949.69,"MIT","MAIN GROUP",2,"2","ACADEMIC","OWNED","AER","UGB","91.10","1813900","1813900",42.360856655699898,-71.092730980599896,766238.79191899905,2956788.13444999,"39","GORDON STANLEY BROWN","BROWN BUILDING",01-AUG-66,,31-DEC-68,01-DEC-14,253
"42T-201505","201505","42T","42T","42","COGENERATION PLANT","William R. Dickson Cogeneration Plant","Building 42 Tunnel",11247.27,0,11247.27,"MIT","",0,"0","SERVICE","OWNED","OTH","UGF1","0.00","1814200","1814200",,,,,"42T","","BUILDING 42 TUNNEL",31-DEC-15,,31-DEC-16,01-DEC-14,1
"E25-201505","201505","E25","E25","","","","Whitaker College Of Health Sciences & Technology",156676.36,90240.16,47623.46,"MIT","EAST",2,"2","ACADEMIC","OWNED","AER","UGBA3","92.30","1822500","1822500",42.3616687646999,-71.086949709300001,767799.84440299904,2957091.5970800002,"E25","UNCAS A. & HELEN F. WHITAKER","WHITAKER COLLEGE",21-AUG-79,,15-FEB-82,01-DEC-14,565
"E62-201505","201505","E62","E62","","","","Building E62",405033.97,274524.21,95303.04,"MIT","EAST",2,"2","ACADEMIC","OWNED","AER","UGBA3","","1823000","1823000",42.361347473400002,-71.082654949000002,768961.13217600004,2956980.1616799901,"E62","","BUILDING E62",,,,01-DEC-14,649
"N10-201505","201505","N10","N10","","","","High Voltage Research Laboratory",10041.46,8107.66,632.03,"MIT","NORTH",1,"1","ACADEMIC","OWNED","AER","UGB","33.00","1851000","1851000",42.360863297599899,-71.095450958100002,765503.660821,2956787.0565499901,"N10","","HIGH VOLTAGE RESEARCH LAB",01-JUL-64,,01-FEB-65,01-DEC-14,52
"E60-201505","201505","E60","E60","","","","Arthur D Little Building",30130.11,12536.82,13088.45,"MIT","EAST",2,"2","ACADEMIC","OWNED","AER","UGB","","","",42.3611773055,-71.082175677199899,769090.96655200003,2956918.78354999,"E60","ARTHUR D. LITTLE","ARTHUR D LITTLE BUILDING",31-DEC-17,01-JUL-97,01-MAR-94,01-DEC-14,133
"NE83-201505","201505","NE83","NE83","","","","Building 300",20795.59,17407.77,873.91,"MIT","",2,"2","ACADEMIC","LEASED","AER","UGB","0.00","","",,,,,"NE83","","BUILDING 300",25-JUN-14,,25-JUN-14,01-DEC-14,77
"NW17-201505","201505","NW17","NW17","","","","Plasma Science And Fusion Center (NW17)",45397.46,27622.94,12314.36,"MIT","NORTHWEST",2,"2","ACADEMIC","OWNED","AER","UGB","33.80","1841700","1841700",42.359856375900002,-71.099142437599895,764507.70102100004,2956415.4034799901,"NW17","","PLASMA SCIENCE & FUSION CENTER (NW17)",31-DEC-23,,,01-DEC-14,154
"NE18-201505","201505","NE18","NE18","","","","255 Main Street",33044.91,28995.07,260.02,"MIT","NORTHEAST",2,"2","ACADEMIC","LEASED","AER","UGB","194.70","1861800","1861800",42.3626472601999,-71.085173263499897,768278.217925,2957450.51042999,"NE18","","255 MAIN STREET",,,01-APR-01,01-DEC-14,196
"NW20-201505","201505","NW20","NW20","","","","Albany Street Generator Shelter",5784.7,5291.98,0,"MIT","NORTHWEST",2,"2","ACADEMIC","OWNED","AER","UGF1","28.00","1842000","1842000",42.359283155599897,-71.098466376600001,764691.40409500001,2956207.3697100002,"NW20","","ALBANY ST GENERATOR SHELTER",,,,01-DEC-14,10
"NW30-201505","201505","NW30","NW30","","","","224 Albany Street",85812.19,50160.21,23182.63,"MIT","NORTHWEST",2,"2","RESIDENT","OWNED","DHOA","UGR2","75.00","1348100","1348100",42.3586472548999,-71.099972867000005,764285.32651200006,2955973.7215900002,"NW30","","224 ALBANY STREET",31-DEC-04,01-OCT-58,01-NOV-58,01-DEC-14,252
"NW86-201505","201505","NW86","NW86","","","","70 Pacific Street Dormitory",362686.82,251368.74,63800.8,"MIT","NORTHWEST",2,"2","RESIDENT","OWNED","DHOA","UGR2","106.40","1348300","1348300",42.359720408500003,-71.102218743099897,763676.49545199901,2956361.9617599901,"NW86","","70 PACIFIC STREET DORMITORY",01-FEB-01,,01-AUG-02,01-DEC-14,710
"OC19F-201505","201505","OC19F","OC19F","","","","BATES LINAC: South Experimental Hall",57867.01,31838.33,7529.01,"BATES","OFFCAMPUS",1,"1","ACADEMIC","OWNED","AER","(NULL)","","1876000","1876000",42.5983373259999,-70.981498496399894,795775.03718700004,3043495.98697,"OC19F","","BATES LINAC: SOUTH EXPERIMENTAL HALL",,,,01-DEC-14,46
"W61D-201505","201505","W61D","W61D","W61","MACGREGOR HOUSE","Frank S MacGregor House","Frank S MacGregor House (Wing D)",12498.73,7668.85,2742.54,"MIT","WEST",2,"2","RESIDENT","OWNED","DHOA","UGR2","","","",,,,,"W61D","","MACGREGOR HOUSE (D)",,,,01-DEC-14,95
"W56-201505","201505","W56","W56","","","","Building W56",2835,2463.75,92.98,"MIT","WEST",2,"2","SERVICE","OWNED","OTH","(NULL)","0.00","","",,,,,"W56","","BUILDING W56",18-JUN-12,,,01-DEC-14,16
"W57A-201505","201505","W57A","W57A","","","","Building W57A",117,91.07,0,"MIT","WEST",3,"3","SERVICE","OWNED","OTH","UGA1","0.00","","",,,,,"W57A","","BUILDING W57A",21-MAR-14,,,01-DEC-14,1
"W70E-201505","201505","W70E","W70E","W70","NEW HOUSE","New West Campus Houses","New West Campus Houses (Wing E)",17792.83,11278.04,4385.7,"MIT","WEST",2,"2","RESIDENT","OWNED","DHOA","UGR2","","","",,,,,"W70E","","NEW HOUSE (E)",,,,01-DEC-14,106
"W92-201505","201505","W92","W92","","","","Building W92",86521.66,72020.11,7904.77,"MIT","WEST",2,"2","ACADEMIC","OWNED","AER","UGB","32.10","1839200","1839200",42.354920429499899,-71.1046169034,763036.448508,2954609.73853999,"W92","","BUILDING W92",,,01-JUL-99,01-DEC-14,360
"W85H-201505","201505","W85H","W85H","W85HJK","WESTGATE (HJK)","Westgate HJK","Westgate H Married Student Housing",4677.62,3727.52,445.9,"MIT","WEST",2,"2","RESIDENT","OWNED","DHOA","(NULL)","","","",,,,,"W85H","","WESTGATE (H)",,,,01-DEC-14,10
"W85HJK-201505","201505","W85HJK","W85HJK","","","","Westgate HJK",13995.47,11150.3,1358.4,"MIT","WEST",2,"2","RESIDENT","OWNED","DHOA","UGR2","31.10","1348000","1348000",42.355450344600001,-71.103152731500003,763431.30457699904,2954804.6881300001,"W85HJK","","WESTGATE (HJK)",01-JAN-62,,01-AUG-63,01-DEC-14,0
"2-201505","201505","2","2","","","","Building 2",121649.77,73934.31,35902.05,"MIT","MAIN GROUP",2,"2","ACADEMIC","OWNED","AER","UGBA3","82.60","1810200","1810200",42.358812732399898,-71.090182689000002,766931.08927,2956046.58619999,"02","","BUILDING 2",01-JUL-13,,31-DEC-16,01-DEC-14,354
"6C-201505","201505","6C","6C","","","","PDSI",51146.78,16126.28,27824.36,"MIT","MAIN GROUP",2,"2","ACADEMIC","OWNED","AER","UGE","92.00","1810600","1810600",42.359672940800003,-71.090836171800007,766752.96512900002,2956359.21569,"06C","","BUILDING 6C",01-MAY-07,,01-MAY-07,01-DEC-14,117
"14W-201505","201505","14W","14W","14","HAYDEN MEMORIAL LIBRARY","Charles Hayden Memorial Library","Charles Hayden Memorial Library (West Wing)",5013.14,2850.15,1777.63,"MIT","MAIN GROUP",2,"2","ACADEMIC","OWNED","AER","(NULL)","","","",,,,,"14W","","HAYDEN MEMORIAL LIBRARY (W)",,,,01-DEC-14,16
"31-201505","201505","31","31","","","","Sloan Laboratories For Aircraft & Automotive Engineering",63579.46,47756.82,10909.03,"MIT","MAIN GROUP",2,"2","ACADEMIC","OWNED","AER","UGB","46.20","1813100","1813100",42.360373622600001,-71.093062013799894,766150.16447099904,2956611.68034,"31","ALFRED P. SLOAN JR.","SLOAN LABORATORIES",31-DEC-28,,31-DEC-28,01-DEC-14,221
"66-201505","201505","66","66","","","","Ralph Landau Building",133862.28,71022.16,48293.13,"MIT","MAIN GROUP",2,"2","ACADEMIC","OWNED","AER","UGBA3","74.30","1816600","1816600",42.360920155499898,-71.089029250099898,767239.13493399904,2956816.0739500001,"66","RALPH LANDAU","LANDAU BUILDING",01-AUG-73,,31-DEC-76,01-DEC-14,330
"E2-201505","201505","E2","E2","","","","Senior House",64670.53,36222.25,18156.46,"MIT","EAST",2,"2","RESIDENT","OWNED","DHOA","UGR2","63.70","1346000","1346000",42.359955651999897,-71.086867012599896,767825.21787099901,2956467.41243,"E02","WARE, ATKINSON,RUNKLE,CRAFTS,NICHOLS,HOLMAN","SENIOR HOUSE",01-JUL-13,,01-JUL-16,01-DEC-14,314
"E19-201505","201505","E19","E19","","","","Horace Sayford Ford Building (E19)",149430.25,100591.94,37489.53,"MIT","EAST",2,"2","SERVICE","OWNED","AER","UGB","81.00","1821900","1821900",42.362129036299898,-71.087952447899895,767528.03043000004,2957258.01825999,"E19","HORACE SAYFORD FORD JR.","FORD BUILDING (E19)",31-DEC-20,01-MAY-61,01-OCT-64,01-DEC-14,721
"E51-201505","201505","E51","E51","","","","Jack C Tang Center For Management Education",108146.05,52256.93,43082.81,"MIT","EAST",2,"2","ACADEMIC","OWNED","AER","UGA3","60.00","1825100","1825100",42.360554207,-71.084492418699895,768465.93793200003,2956688.6550699901,"E51","","TANG CENTER",31-DEC-44,31-DEC-45,31-DEC-80,01-DEC-14,318
"E52-201505","201505","E52","E52","","","","Alfred P Sloan Building",143950.12,86926.63,40977.5,"MIT","EAST",2,"2","ACADEMIC","OWNED","AER","UGBA3","97.40","1825200","1825200",42.360735923100002,-71.083676675299898,768686.08396199904,2956755.9513699901,"E52","ALFRED P. SLOAN JR.","SLOAN BUILDING",31-DEC-38,01-JAN-51,01-MAY-52,01-DEC-14,534
"E53-201505","201505","E53","E53","","","","Grover M Hermann Building",95445.1,63414.1,25153.08,"MIT","EAST",2,"2","ACADEMIC","OWNED","AER","UGA3","72.20","1825300","1825300",42.361188175899898,-71.083592274799898,768708.09014900005,2956920.8726300001,"E53","GROVER MARTIN HERMANN","HERMANN BUILDING",01-JAN-64,,01-OCT-65,01-DEC-14,289
"E55-201505","201505","E55","E55","","","","Eastgate Married Student Housing",172358.83,120283.18,29645.23,"MIT","EAST",2,"2","RESIDENT","OWNED","DHOA","UGR2","272.80","1348200","1348200",42.361736081399897,-71.083908763500006,768621.58020900004,2957120.12301999,"E55","","EASTGATE",01-NOV-65,,01-AUG-67,01-DEC-14,438
"N16-201505","201505","N16","N16","","","","Cooling Tower & Oil Reserve",31334.45,0,25029.45,"MIT","NORTH",0,"0","SERVICE","OWNED","OTH","UGU","59.00","","",42.361266616599899,-71.094065925199899,765877.28985399904,2956935.8126300001,"N16","","COOLING TOWER & OIL RESERVE",20-SEP-71,,31-DEC-72,01-DEC-14,26
"N16A-201505","201505","N16A","N16A","","","","Building N16A",9766.11,0,8652.37,"MIT","NORTH",0,"0","SERVICE","OWNED","OTH","UGU","57.70","","",42.3612415983999,-71.0943815255999,765792.037381,2956926.28971999,"N16A","","BUILDING N16A",,,,01-DEC-14,11
"NW16-201505","201505","NW16","NW16","","","","Plasma Science And Fusion Center (NW16)",50148.39,31346.41,14440.37,"MIT","NORTHWEST",2,"2","ACADEMIC","OWNED","AER","UGB","34.00","1841600","1841600",42.360032100799899,-71.098715324899899,764622.83609600004,2956479.9839900001,"NW16","","PLASMA SCIENCE & FUSION CENTER (NW16)",01-JUN-80,01-APR-66,01-MAY-81,01-DEC-14,171
"N51-201505","201505","N51","N51","","","","Building N51",44980.93,32641.41,8419.29,"MIT","NORTH",2,"2","ACADEMIC","OWNED","AER","UGBA3","50.90","1855100","1855100",42.362284424099897,-71.097627705700006,764912.91509100003,2957302.1611899901,"N51","","BUILDING N51",31-DEC-24,16-APR-82,01-JAN-64,01-DEC-14,127
"N52-201505","201505","N52","N52","","","","MIT Museum",103874.44,71387.57,21271.39,"MIT","NORTH",2,"2","ACADEMIC","OWNED","AER","UGA3B","56.80","1855200","1855200",42.362272730100003,-71.097188232700006,765031.70745500003,2957298.4603300001,"N52","","MIT MUSEUM",31-DEC-24,16-APR-82,01-JAN-64,01-DEC-14,324
"NE25-201505","201505","NE25","NE25","","","","355 Main Street",15375.72,14460.12,37.84,"MIT","NORTHEAST",2,"2","SERVICE","LEASED","AER","UGB","177.20","1862500","1862500",42.3628074388999,-71.087506279799896,767647.41687700001,2957505.82516,"NE25","","355 MAIN STREET",,,01-JUL-96,01-DEC-14,108
"NW21-201505","201505","NW21","NW21","","","","Plasma Science And Fusion Center (NW21)",120136.72,65083.46,44698.29,"MIT","NORTHWEST",2,"2","ACADEMIC","OWNED","AER","UGB","43.60","1842100","1842100",42.359063597199899,-71.099146290099895,764508.01709900005,2956126.4939299901,"NW21","","PLASMA SCIENCE & FUSION CENTER (NW21)",31-DEC-99,01-APR-80,01-MAY-80,01-DEC-14,149
"OC100-201505","201505","OC100","OC100","","","","BUILDING OC100",2649.3,1891.48,16.82,"DC","OFFCAMPUS",1,"1","ACADEMIC","LEASED","OTH","(NULL)","","","",,,,,"OC100","","BUILDING OC100",,,01-JUL-91,01-DEC-14,11
"OC19B-201505","201505","OC19B","OC19B","","","","Bates LINAC: Research Bldg",13810.89,10426.98,1578.19,"BATES","OFFCAMPUS",1,"1","ACADEMIC","OWNED","AER","(NULL)","","1876000","1876000",42.5990272815,-70.980450091700007,796055.788757,3043749.1522400002,"OC19B","","BATES LINAC: RESEARCH BLDG",,,,01-DEC-14,45
"OC19E-201505","201505","OC19E","OC19E","","","","BATES LINAC: Ring Service Building",3058.54,2225.79,218.06,"BATES","OFFCAMPUS",1,"1","ACADEMIC","OWNED","AER","(NULL)","","1876000","1876000",42.599068701599897,-70.9790036614,796445.14395099902,3043766.6228900002,"OC19E","","BATES LINAC: RING SERVICE BUILDING",,,,01-DEC-14,7
"W1-201505","201505","W1","W1","","","","Fariborz Maseeh Hall",189693.16,107518.76,43357.57,"MIT","WEST",2,"2","RESIDENT","OWNED","DHOA","UGR2","74.50","1345000","1345000",42.357617631099899,-71.093510699800007,766033.68489899905,2955606.7632300002,"W01","AVERY ALLEN ASHDOWN","FARIBORZ MASEEH HALL",31-DEC-00,31-DEC-37,31-DEC-39,01-DEC-14,555
"OC19G-201505","201505","OC19G","OC19G","","","","BATES LINAC: North Hall Exhaust",454.61,372.3,13.64,"BATES","OFFCAMPUS",1,"1","ACADEMIC","OWNED","AER","(NULL)","","1876000","1876000",42.5980549477,-70.982733553800003,795443.12176899903,3043391.05788999,"OC19G","","BATES LINAC: NORTH HALL EXHAUST",,,,01-DEC-14,2
"OC19J-201505","201505","OC19J","OC19J","","","","BATES LINAC: Gas Bottle/Tank Storage",400.94,348.95,0,"BATES","OFFCAMPUS",1,"1","ACADEMIC","OWNED","AER","(NULL)","","1876000","1876000",,,,,"OC19J","","BATES LINAC: GAS BOTTLE/TANK STORAGE",,,,01-DEC-14,2
"OC23-201505","201505","OC23","OC23","","","","Wallace Geophysical Observatory",2034.38,1617.25,0,"HAY","OFFCAMPUS",1,"1","ACADEMIC","OWNED","AER","UGB","","1878100","1878100",42.610061447200003,-71.489887910899895,658888.89275999903,3047344.6454799902,"OC23","GEORGE R. WALLACE JR.","WALLACE GEOPHYSICAL OBSERVATORY",,,20-MAY-70,01-DEC-14,6
"OC24-201505","201505","OC24","OC24","","","","Haystack Antenna Facility",9060.39,7042.49,849.63,"HAY","OFFCAMPUS",1,"1","ACADEMIC","LEASED","AER","UGB","","","",42.6130515348,-71.493730352100002,657854.40781700006,3048434.2786599901,"OC24","","HAYSTACK ANTENNA FACILITY",,,01-JAN-80,01-DEC-14,31
"W5-201505","201505","W5","W5","","","","Ida Flansburgh Green Hall",19010.96,9843.29,5586.45,"MIT","WEST",2,"2","RESIDENT","OWNED","DHOA","UGR2","53.20","1345500","1345500",42.356918931899898,-71.095101036399896,765605.05647299904,2955350.0988500002,"W05","IDA FLANSBURGH GREEN","GREEN HALL",31-DEC-01,01-JUL-63,31-DEC-70,01-DEC-14,110
"W53C-201505","201505","W53C","W53C","","","","Building W53C",180,0,151.33,"MIT","WEST",2,"2","SERVICE","OWNED","OTH","UGU","","","",,,,,"W53C","","BUILDING W53C",01-OCT-08,,,01-DEC-14,1
"W57-201505","201505","W57","W57","","","","Building W57",2030.11,1849.2,30.67,"MIT","WEST",2,"2","SERVICE","OWNED","OTH","(NULL)","0.00","","",,,,,"W57","","BUILDING W57",18-JUN-12,,,01-DEC-14,3
"WW25-201505","201505","WW25","WW25","","","","Building WW25",2300.01,2300,0,"MIT","WESTWEST",2,"2","SERVICE","LEASED","OTH","UGS1","","","",42.355737910999899,-71.106326600100004,762572.95558199903,2954905.5079299901,"WW25","","BUILDING WW25",,,,01-DEC-14,2
"W85-201505","201505","W85","W85","","","","Westgate  Married Student Housing",115603.99,84270.83,25211.66,"MIT","WEST",2,"2","RESIDENT","OWNED","DHOA","UGR2","167.30","1348000","1348000",42.354997759200003,-71.103257782,763403.67751399905,2954639.6248699902,"W85","","WESTGATE",01-JAN-62,,01-AUG-63,01-DEC-14,327
"W85A-201505","201505","W85A","W85A","W85ABC","WESTGATE (ABC)","Westgate ABC","Westgate A Married Student Housing",4686.42,3725.83,453.68,"MIT","WEST",2,"2","RESIDENT","OWNED","DHOA","(NULL)","","","",,,,,"W85A","","WESTGATE (A)",,,,01-DEC-14,11
"W85C-201505","201505","W85C","W85C","W85ABC","WESTGATE (ABC)","Westgate ABC","Westgate C Married Student Housing",4661.33,3701.95,454.98,"MIT","WEST",2,"2","RESIDENT","OWNED","DHOA","(NULL)","","","",,,,,"W85C","","WESTGATE (C)",,,,01-DEC-14,10
"W85J-201505","201505","W85J","W85J","W85HJK","WESTGATE (HJK)","Westgate HJK","Westgate J Married Student Housing",4630.7,3701.56,451.91,"MIT","WEST",2,"2","RESIDENT","OWNED","DHOA","(NULL)","","","",,,,,"W85J","","WESTGATE (J)",,,,01-DEC-14,10
"62-201505","201505","62","62","","","","Alumni Houses: Munroe Hayden Wood",77154,50572.78,18936.55,"MIT","MAIN GROUP",2,"2","RESIDENT","OWNED","DHOA","UGR2","51.50","1346200","1346200",42.3602292035999,-71.088682904600006,767333.95523299905,2956564.7278900002,"62","JAMES P. MUNROE, HENRY R. HAYDEN, KENNETH F. WOOD","ALUMNI HOUSES: MUNROE HAYDEN WOOD",01-MAR-30,,01-SEP-31,01-DEC-14,0
"W85DE-201505","201505","W85DE","W85DE","","","","Westgate DE",9320.91,7417.78,904.31,"MIT","WEST",2,"2","RESIDENT","OWNED","DHOA","UGR2","31.10","1348000","1348000",42.355374626,-71.103948044899894,763216.46723499906,2954776.0956700002,"W85DE","","WESTGATE (DE)",01-JAN-62,,01-AUG-63,01-DEC-14,0
"1-201505","201505","1","1","","","","Henry L Pierce Engineering Laboratory",116239.37,76174.05,28714.12,"MIT","MAIN GROUP",2,"2","ACADEMIC","OWNED","AER","UGBA3","81.40","1810100","1810100",42.358085904500001,-71.092357234000005,766344.62904499902,2955778.8992900001,"01","HENRY L. PIERCE","PIERCE LABORATORY",31-DEC-13,,31-DEC-17,01-DEC-14,407
"3-201505","201505","3","3","","","","Richard Cockburn MacLaurin Buildings (3)",160124.08,104207.22,40740.68,"MIT","MAIN GROUP",2,"2","ACADEMIC","OWNED","AER","UGBA3","85.50","1810300","1810300",42.3590069408,-71.0923974098,766332.166723,2956114.4910200001,"03","R. C. MACLAURIN","MACLAURIN BUILDINGS (3)",01-JUL-13,,31-DEC-16,01-DEC-14,535
"10-201505","201505","10","10","","","","Richard Cockburn MacLaurin Buildings (10)",143921.25,86504.58,42200.19,"MIT","MAIN GROUP",2,"2","ACADEMIC","OWNED","AER","UGA3B","149.20","1811000","1811000",42.359677380100003,-71.092016473499896,766433.95508400002,2956359.3054300002,"10","R. C. MACLAURIN","MACLAURIN BUILDINGS (10)",01-JUL-13,,31-DEC-16,01-DEC-14,566
"11-201505","201505","11","11","","","","Homberg Building",26705.26,18688.68,4787.15,"MIT","MAIN GROUP",2,"2","ACADEMIC","OWNED","AER","UGB","72.50","1811100","1811100",42.359522010100001,-71.092772666200005,766229.84780500003,2956301.7088100002,"11","RICHARD MEYER HOMBERG","HOMBERG BUILDING",01-JUN-27,,31-DEC-28,01-DEC-14,189
"26-201505","201505","26","26","","","","Karl Taylor Compton Laboratories",133545.12,80689.29,42202.87,"MIT","MAIN GROUP",2,"2","ACADEMIC","OWNED","AER","UGBA3","78.70","1812600","1812600",42.360857952400003,-71.091152937100006,766665.28283200006,2956790.6472399901,"26","KARL TAYLOR COMPTON","COMPTON LABORATORIES",01-JUN-55,,01-FEB-57,01-DEC-14,378
"18-201505","201505","18","18","","","","Camille Edouard Dreyfus Building",133552.11,76459.68,40382.82,"MIT","MAIN GROUP",2,"2","ACADEMIC","OWNED","AER","UGB","82.50","1811800","1811800",42.360069747200001,-71.089821313800002,767026.55760299903,2956505.1372199901,"18","CAMILLE EDOUARD DREYFUS","DREYFUS BUILDING",01-MAY-67,,15-DEC-69,01-DEC-14,512
"34-201505","201505","34","34","","","","EG&G Education Center",26966.05,14658.72,9148.25,"MIT","MAIN GROUP",2,"2","ACADEMIC","OWNED","AER","UGA3","81.30","1813400","1813400",42.361138247100001,-71.0919512822,766449.027596,2956891.7591599901,"34","HAROLD E. EDGERTON, KENNETH H. GERMESHAUSEN, HERBERT E. GRIER","EG&G EDUCATION CENTER",31-DEC-82,,31-DEC-83,01-DEC-14,62
"35-201505","201505","35","35","","","","Sloan Laboratory",68012.32,41750.9,18801.94,"MIT","MAIN GROUP",2,"2","ACADEMIC","OWNED","AER","UGBA3","80.30","1813500","1813500",42.360381183800001,-71.094028140399899,765889.03724800004,2956613.1916499902,"35","ALFRED P. SLOAN JR.","SLOAN LABORATORY",01-AUG-50,,01-JUN-52,01-DEC-14,249
"38-201505","201505","38","38","","","","Fairchild Buildings (38)",84329.46,56062.43,19933.08,"MIT","MAIN GROUP",2,"2","ACADEMIC","OWNED","AER","UGB","91.40","1813800","1813800",42.361073927,-71.092349797200001,766341.43467700004,2956867.8046599901,"38","SHERMAN M. FAIRCHILD","FAIRCHILD BUILDING (38)",12-APR-71,,01-OCT-73,01-DEC-14,329
"43-201505","201505","43","43","","","","Power Plant Annex",10373.95,5443.11,4097.66,"MIT","MAIN GROUP",0,"0","SERVICE","OWNED","OTH","UGF1","30.50","","",42.361144933600002,-71.093211498399896,766108.42287899903,2956892.56905,"43","","POWER PLANT ANNEX",31-DEC-14,,01-AUG-16,01-DEC-14,35
"48-201505","201505","48","48","","","","Ralph M Parsons Laboratory For Water Resources & Hydrodynamics",57227.15,38567.88,11260.64,"MIT","MAIN GROUP",2,"2","ACADEMIC","OWNED","AER","UGB","64.00","1814800","1814800",42.362432493100002,-71.090665238,766794.33740199904,2957365.0742299901,"48","RALPH M. PARSONS","PARSONS LABORATORY",31-DEC-49,,31-DEC-51,01-DEC-14,153
"51-201505","201505","51","51","","","","Walter C Wood Sailing Pavilion",5889.33,4450.4,909.69,"MIT","MAIN GROUP",2,"2","SERVICE","OWNED","STAC","UGA3","21.30","1815100","1815100",42.358517055500002,-71.087730350800001,767594.41677799902,2955942.02996,"51","WALTER C. WOOD","WOOD SAILING PAVILION",31-DEC-36,,31-DEC-37,01-DEC-14,24
"E90-201505","201505","E90","E90","","","","Building E90",14245.56,12565.39,152.18,"MIT","EAST",3,"3","ACADEMIC","LEASED","AER","UGB","0.00","","",,,,,"E90","","BUILDING E90",21-MAR-14,,,01-DEC-14,79
"NW12A-201505","201505","NW12A","NW12A","","","","Nuclear Reactor Lab",382.61,311.78,0,"MIT","NORTHWEST",0,"0","ACADEMIC","OWNED","AER","UGB","0.00","","",,,,,"NW12A","","BUILDING 12A",21-MAR-14,,,01-DEC-14,1
"N16C-201505","201505","N16C","N16C","","","","Building N16C",2925.3,155.39,2705.41,"MIT","NORTH",0,"0","SERVICE","OWNED","OTH","UGU","","","",42.361098659500001,-71.094495758400001,765761.41181399894,2956874.05308,"N16C","","BUILDING N16C",,,,01-DEC-14,3
"N4-201505","201505","N4","N4","","","","Albany Street Parking Garage",143032.14,129868.34,5780.48,"MIT","NORTH",2,"2","SERVICE","OWNED","GAR","UGS2","56.30","1850400","1850400",42.362034286799897,-71.092780364700005,766223.39594700001,2957217.2235699901,"N04","","ALBANY GARAGE",31-DEC-66,,01-OCT-66,01-DEC-14,36
"NE45-201505","201505","NE45","NE45","","","","300 Technology Square",8049.06,4586.56,0,"MIT","",2,"2","ACADEMIC","LEASED","AER","(NULL)","0.00","","",,,,,"NE45","","300 TECHNOLOGY SQUARE",21-MAR-14,,,01-DEC-14,24
"NW22-201505","201505","NW22","NW22","","","","Plasma Science And Fusion Center (NW22)",50118.21,39243.99,5534.67,"MIT","NORTHWEST",2,"2","ACADEMIC","OWNED","AER","UGB","33.70","1842200","1842200",42.359638620600002,-71.099723132400001,764351.12835400004,2956335.3119899901,"NW22","","PLASMA SCIENCE & FUSION CENTER (NW22)",,,17-JAN-92,01-DEC-14,152
"NW86P-201505","201505","NW86P","NW86P","","","","70 Pacific Street Dormitory Garage",52869.94,42666.46,6075.51,"MIT","NORTHWEST",2,"2","SERVICE","OWNED","GAR","UGS2","","","",,,,,"NW86P","","70 PACIFIC STREET DORMITORY GARAGE",01-FEB-01,,01-AUG-02,01-DEC-14,32
"OC1-201505","201505","OC1","OC1","","","","Endicott House",29214.19,17229.44,6961.62,"END","OFFCAMPUS",2,"2","ACADEMIC","OWNED","OTH","UGR1A3","","","",42.253948894600001,-71.193654414700006,739102.39364899904,2917714.92627999,"OC01","THE ENDICOTT FAMILY","ENDICOTT HOUSE",,24-DEC-54,01-JUL-55,01-DEC-14,185
"OC11-201505","201505","OC11","OC11","","","","1 Summer Street",8789.53,6630.71,0,"BOS","OFFCAMPUS",1,"1","SERVICE","LEASED","AER","(NULL)","","1897100","1897100",,,,,"OC11","","1 SUMMER STREET BOSTON MA",,,01-JAN-08,01-DEC-14,2
"OC19C-201505","201505","OC19C","OC19C","","","","BATES LINAC: North Experimental Hall",6081.18,5375.22,11.05,"BATES","OFFCAMPUS",1,"1","ACADEMIC","OWNED","AER","(NULL)","","1876000","1876000",42.598394242600001,-70.9802900128999,796100.29527,3043518.7098300001,"OC19C","","BATES LINAC: NORTH EXPERIMENTAL HALL",,,,01-DEC-14,4
"OC19L-201505","201505","OC19L","OC19L","","","","BATES LINAC: Warehouse #1",2644.67,2299.14,0,"BATES","OFFCAMPUS",1,"1","ACADEMIC","OWNED","AER","(NULL)","","1876000","1876000",,,,,"OC19L","","BATES LINAC: WAREHOUSE #1",,,,01-DEC-14,3
"OC32B-201505","201505","OC32B","OC32B","","","","Balloon House B",132.03,116.25,0,"LINC","OFFCAMPUS",1,"1","SERVICE","OWNED","OTH","(NULL)","","","",,,,,"OC32B","","BALLOON HOUSE B",,,,01-DEC-14,1
"OC33-201505","201505","OC33","OC33","","","","Annex 3",12421.75,8671.97,2463.49,"LINC","OFFCAMPUS",1,"1","ACADEMIC","OWNED","OTH","(NULL)","","","",,,,,"OC33","","ANNEX 3",,,,01-DEC-14,37
"OC36A-201505","201505","OC36A","OC36A","","","","Annex 6 Trailer",960,912.58,0,"LINC","OFFCAMPUS",1,"1","ACADEMIC","OWNED","OTH","(NULL)","","","",,,,,"OC36A","","ANNEX 6 TRAILER",,,,01-DEC-14,1
"W61A-201505","201505","W61A","W61A","W61","MACGREGOR HOUSE","Frank S MacGregor House","Frank S MacGregor House (Wing A)",12634.2,7778.22,2879.06,"MIT","WEST",2,"2","RESIDENT","OWNED","DHOA","UGR2","","","",,,,,"W61A","","MACGREGOR HOUSE (A)",,,,01-DEC-14,95
"W61F-201505","201505","W61F","W61F","W61","MACGREGOR HOUSE","Frank S MacGregor House","Frank S MacGregor House (Wing F)",12611.59,8337.02,1778.93,"MIT","WEST",2,"2","RESIDENT","OWNED","DHOA","UGR2","","","",,,,,"W61F","","MACGREGOR HOUSE (F)",,,,01-DEC-14,102
"W79-201505","201505","W79","W79","","","","Simmons Hall",191189.7,94212.61,67667.38,"MIT","WEST",2,"2","RESIDENT","OWNED","DHOA","UGR2","100.60","1347600","1347600",42.3571086237,-71.1015208046,763869.57442700001,2955411.0550799901,"W79","RICHARD P. SIMMONS '53","SIMMONS HALL",01-DEC-00,,20-AUG-02,01-DEC-14,909
"W85D-201505","201505","W85D","W85D","W85DE","WESTGATE (DE)","Westgate DE","Westgate D Married Student Housing",4667.7,3713.09,454.55,"MIT","WEST",2,"2","RESIDENT","OWNED","DHOA","(NULL)","","","",,,,,"W85D","","WESTGATE (D)",,,,01-DEC-14,10
"W85F-201505","201505","W85F","W85F","W85FG","WESTGATE (FG)","Westgate FG","Westgate F Married Student Housing",4667.7,3713.09,454.55,"MIT","WEST",2,"2","RESIDENT","OWNED","DHOA","(NULL)","","","",,,,,"W85F","","WESTGATE (F)",,,,01-DEC-14,10
"W85ABC-201505","201505","W85ABC","W85ABC","","","","Westgate ABC",13983.54,11133.38,1362.34,"MIT","WEST",2,"2","RESIDENT","OWNED","DHOA","UGR2","30.60","1348000","1348000",42.354981737300001,-71.103900876599894,763229.881421,2954632.9782799901,"W85ABC","","WESTGATE (ABC)",01-JAN-62,,01-AUG-63,01-DEC-14,0
"W85FG-201505","201505","W85FG","W85FG","","","","Westgate FG",9320.91,7417.78,904.31,"MIT","WEST",2,"2","RESIDENT","OWNED","DHOA","UGR2","31.10","1348000","1348000",42.355623033100002,-71.103600258399894,763310.04989100003,2954867.0569000002,"W85FG","","WESTGATE (FG)",01-JAN-62,,01-AUG-63,01-DEC-14,0
"12A-201505","201505","12A","12A","","","","Building 12A",1122.97,451.37,463.83,"MIT","MAIN GROUP",0,"0","SERVICE","OWNED","AER","UGHH","13.00","1811200","1811200",42.360144325199897,-71.091169989899896,766661.920101,2956530.5650800001,"12A","","WASTE CHEMICAL STORAGE",31-DEC-16,,31-DEC-17,01-DEC-14,3
"14N-201505","201505","14N","14N","14","HAYDEN MEMORIAL LIBRARY","Charles Hayden Memorial Library","Charles Hayden Memorial Library (North Wing)",37006.11,20979.04,11550.51,"MIT","MAIN GROUP",2,"2","ACADEMIC","OWNED","AER","(NULL)","","","",,,,,"14N","","HAYDEN MEMORIAL LIBRARY (N)",,,,01-DEC-14,188
"E70-201505","201505","E70","E70","","","","Badger Building",34914.58,29048.64,0,"MIT","EAST",2,"2","SERVICE","LEASED","OTH","UGB","226.70","1827000","1827000",42.362749232100001,-71.083463188600007,768740.19956099906,2957489.9233900001,"E70","","BADGER BUILDING",,,01-OCT-95,01-DEC-14,171
"EE20-201505","201505","EE20","EE20","","","","Building EE20",31093.51,28090.6,424.97,"MIT","EASTEAST",3,"3","ACADEMIC","LEASED","AER","UGB","0.00","","",,,,,"EE20","","BUILDING EE20",21-MAR-14,,,01-DEC-14,143
"NW14-201505","201505","NW14","NW14","","","","Francis Bitter Magnet Laboratory (NW14)",144973.33,103477.64,30884.31,"MIT","NORTHWEST",2,"2","ACADEMIC","OWNED","AER","UGB","75.70","1841400","1841400",42.359632077500002,-71.097898841900005,764844.19425599906,2956335.2465900001,"NW14","DR. FRANCIS BITTER","FRANCIS BITTER MAGNET LAB (NW14)",31-DEC-13,22-DEC-58,01-SEP-62,01-DEC-14,399
"W11-201505","201505","W11","W11","","","","Religious Activities Center",13590.41,7922.29,4152.3,"MIT","WEST",2,"2","SERVICE","OWNED","STAC","UGB","16.40","1831100","1831100",42.358261085899898,-71.093535776300001,766025.78984600003,2955841.2188300001,"W11","","RELIGIOUS ACTIVITIES CENTER",31-DEC-36,01-FEB-66,01-JAN-67,01-DEC-14,63
"W4-201505","201505","W4","W4","","","","Stanley McCormick Hall",128989.56,66792.4,43493.47,"MIT","WEST",2,"2","RESIDENT","OWNED","DHOA","UGR2","89.20","1346800","1346800",42.357183004200003,-71.094423015199894,765787.85673300002,2955447.2028800002,"W04","STANLEY MCCORMICK","MCCORMICK HALL",01-MAR-62,,01-SEP-63,01-DEC-14,562
"OC19K-201505","201505","OC19K","OC19K","","","","BATES LINAC: Vault & Tunnel Gallery",55607.34,40136.19,4760.49,"BATES","OFFCAMPUS",1,"1","ACADEMIC","OWNED","AER","(NULL)","","1876000","1876000",,,,,"OC19K","","BATES LINAC: VAULT & TUNNEL GALLERY",,,,01-DEC-14,45
"OC40-201505","201505","OC40","OC40","","","","MASS GREEN HIGH PERFORMANCE COMPUTING CENTER",1469.02,1469.03,0,"HOLYOKE","OFFCAMPUS",3,"3","SERVICE","LEASED","AER","(NULL)","0.00","","",,,,,"OC40","","MASS GREEN HIGH PERFORMANCE COMPUTING CENTER",21-MAR-14,,01-NOV-12,01-DEC-14,4
"W32-201505","201505","W32","W32","","","","David Flett du Pont Athletic Center",46574.18,26203.69,15253.71,"MIT","WEST",2,"2","SERVICE","OWNED","STAC","UGBA3","36.10","1833200","1833200",42.359368407700003,-71.095133690500006,765591.99335400003,2956242.6953400001,"W32","DAVID FLETT DUPONT","DU PONT ATHLETIC CENTER",01-FEB-58,,01-OCT-59,01-DEC-14,89
"W33-201505","201505","W33","W33","","","","Rockwell Athletic Cage",34427.72,32379.24,594.57,"MIT","WEST",2,"2","SERVICE","OWNED","STAC","UGA3","22.80","1833300","1833300",42.359201752600001,-71.0959719345,765365.72623899905,2956180.88854999,"W33","JOHN ARNOLD ROCKWELL M.D.","ROCKWELL CAGE",01-JUL-47,,01-JUN-48,01-DEC-14,7
"W34-201505","201505","W34","W34","","","","Johnson Athletics Center",109397.67,82318.33,20654.76,"MIT","WEST",2,"2","SERVICE","OWNED","STAC","UGA3","37.90","1833400","1833400",42.358595720499899,-71.096529928699894,765215.96003399906,2955959.3241400002,"W34","HOWARD WESLEY JOHNSON","JOHNSON ATHLETICS CENTER",01-JUL-79,,01-OCT-80,01-DEC-14,73
"W53-201505","201505","W53","W53","","","","J B Carr Indoor Tennis Facility",25692.9,24982.22,0,"MIT","WEST",2,"2","SERVICE","OWNED","STAC","UGB","39.00","","",42.3569232231999,-71.097804046099895,764874.46957900003,2955348.2062400002,"W53","JASPER B. CARR","CARR INDOOR TENNIS FACILITY",01-APR-71,,31-DEC-71,01-DEC-14,1
"W59-201505","201505","W59","W59","","","","Heinz Building",36051.39,24909.41,6977.47,"MIT","WEST",2,"2","SERVICE","OWNED","AER","UGB","33.50","1835900","1835900",42.3581054753,-71.099550893,764400.30264799902,2955776.82131,"W59","","HEINZ BUILDING",31-DEC-15,30-APR-68,31-DEC-79,01-DEC-14,153
"W98-201505","201505","W98","W98","","","","600 Memorial Drive",82480.74,47668.89,25043.7,"MIT","WEST",2,"2","ACADEMIC","OWNED","AER","(NULL)","91.00","1839800","1839800",42.3539554133,-71.1066451465,762489.85176200001,2954255.5327300001,"W98","","BUILDING W98",,30-JUN-08,,01-DEC-14,511
"W89-201505","201505","W89","W89","","","","MIT Police",14909.35,7669.85,4956.87,"MIT","WEST",0,"0","SERVICE","OWNED","AER","UGB","27.90","1838900","1838900",42.355538582599898,-71.104673289900006,763020.16355699894,2954834.9353700001,"W89","","MIT POLICE",31-DEC-48,19-JAN-01,08-MAR-06,01-DEC-14,83
"7A-201505","201505","7A","7A","","","","Rotch Library Extension",18501.98,14974.7,2388.47,"MIT","MAIN GROUP",2,"2","ACADEMIC","OWNED","AER","UGA3","77.00","1810700","1810700",42.359495924599898,-71.093193667899897,766116.108029,2956291.6597199901,"07A","","ROTCH LIBRARY EXTENSION",31-DEC-89,,11-JUL-90,01-DEC-14,75
"9-201505","201505","9","9","","","","Building 9",75420.83,36371.35,28964.52,"MIT","MAIN GROUP",2,"2","ACADEMIC","OWNED","AER","UGBA3","83.90","1810900","1810900",42.359749929400003,-71.093561749900005,766016.18442099902,2956383.7499500001,"09","","BUILDING 9",01-APR-66,,01-DEC-67,01-DEC-14,313
"32-201505","201505","32","32","","","","Ray and Maria Stata Center",464004.84,286244.98,121735.52,"MIT","MAIN GROUP",2,"2","ACADEMIC","OWNED","AER","(NULL)","140.00","1813200","1813200",42.361596720199898,-71.090568544199897,766821.93192500004,2957060.6268500001,"32","RAY STATA '57","STATA CENTER",,,19-MAR-04,01-DEC-14,1317
"36-201505","201505","36","36","","","","Fairchild Buildings (36)",145819.4,71387.62,58854.35,"MIT","MAIN GROUP",2,"2","ACADEMIC","OWNED","AER","UGB","117.40","1813600","1813600",42.3614372153,-71.0916675836,766525.17992599902,2957001.0762499901,"36","SHERMAN M. FAIRCHILD","FAIRCHILD BUILDING (36)",12-APR-71,,01-OCT-73,01-DEC-14,587
"44-201505","201505","44","44","","","","Cyclotron",16118.61,11616.29,2717.2,"MIT","MAIN GROUP",2,"2","ACADEMIC","OWNED","AER","UGB","29.50","1814400","1814400",42.361606785100001,-71.0924707402,766307.82008600002,2957061.8328100001,"44","","CYCLOTRON",31-DEC-38,,31-DEC-39,01-DEC-14,48
"6-201505","201505","6","6","","","","George Eastman Research",88826.92,53881.73,22701.76,"MIT","MAIN GROUP",2,"2","ACADEMIC","OWNED","AER","UGBA3","81.40","1810600","1810600",42.359538878400002,-71.090454767400004,766856.28272799903,2956310.85519,"06","GEORGE EASTMAN","EASTMAN LABORATORIES",31-DEC-31,,31-DEC-33,01-DEC-14,312
"64G-201505","201505","64G","64G","64","EAST CAMPUS: WALCOTT BEMIS GOODALE","Alumni Houses: Walcott Bemis Goodale","Alumni Houses: Goodale",24787.4,17041.11,5242,"MIT","MAIN GROUP",2,"2","RESIDENT","OWNED","DHOA","(NULL)","","","",,,,,"64G","CHARLES WARREN GOODALE","EAST CAMPUS: GOODALE",,,,01-DEC-14,108
"6B-201505","201505","6B","6B","","","","Solvent Storage",1680.39,643.66,874.79,"MIT","MAIN GROUP",0,"0","SERVICE","OWNED","AER","UGHH","11.70","1810600","1810600",42.359410918400002,-71.090674839599899,766797.02685999905,2956263.9386900002,"06B","","SOLVENT STORAGE",31-DEC-20,,31-DEC-21,01-DEC-14,4
"E15-201505","201505","E15","E15","","","","Wiesner Building",120331.42,78968.75,32381.88,"MIT","EAST",2,"2","ACADEMIC","OWNED","AER","UGA3B","68.50","1821500","1821500",42.360838440099897,-71.087634887999897,767616.12840699905,2956788.1138499901,"E15","JEROME BERT WIESNER","WIESNER BUILDING",01-JAN-82,,01-SEP-84,01-DEC-14,460
"E38-201505","201505","E38","E38","","","","Suffolk Building",66530.75,48405.66,12395.89,"MIT","EAST",2,"2","ACADEMIC","OWNED","AER","UGB","82.70","1823800","1823800",42.362150080600003,-71.085878539899895,768088.49022100004,2957268.40191,"E38","","SUFFOLK BUILDING",31-DEC-20,04-NOV-74,01-SEP-68,01-DEC-14,375
"E39-201505","201505","E39","E39","","","","290 Main Street",27661.19,22245.34,1390.09,"MIT","EAST",2,"2","ACADEMIC","LEASED","AER","UGBM","42.30","1823900","1823900",42.362100989200002,-71.085477417500002,768196.98497999902,2957251.03855999,"E39","","290 MAIN STREET",,01-NOV-67,17-NOV-86,01-DEC-14,172
"E48-201505","201505","E48","E48","","","","Building E48",44321.76,37171.31,708.42,"MIT","EAST",2,"2","SERVICE","LEASED","AER","UGB","113.90","","",42.362065761099899,-71.084733735200004,768398.03607399901,2957239.1785599901,"E48","","BUILDING E48",,15-SEP-61,01-AUG-89,01-DEC-14,243
"N57-201505","201505","N57","N57","","","","Building N57",46633.25,41521.21,2815.06,"MIT","NORTH",2,"2","SERVICE","OWNED","AER","UGBS1","78.20","1855700","1855700",42.363011404399899,-71.098829638400005,764586.83377400006,2957565.5576800001,"N57","","BUILDING N57",31-DEC-22,01-SEP-80,,01-DEC-14,52
"N9-201505","201505","N9","N9","","","","Superconducting Generator Test Facility",5957.13,5352.27,153.75,"MIT","NORTH",1,"1","ACADEMIC","OWNED","AER","UGB","32.70","1850900","1850900",42.360953206300003,-71.095193773700004,765573.01373000001,2956820.1508900002,"N09","","SUPERCONDUCTING TEST FACILITY",,,31-DEC-78,01-DEC-14,14
"NE123A-201505","201505","NE123A","NE123A","","","","300 Bent Street",1812.03,439.51,0,"MIT","NORTHEAST",2,"2","SERVICE","LEASED","OTH","(NULL)","0.00","","",42.367359539900001,-71.086745918099894,922.3372036854776,922.3372036854776,"NE123A","","300 BENT STREET",21-MAR-14,,,01-DEC-14,5
"NE35-201505","201505","NE35","NE35","","","","145 Broadway",9525.85,8264.35,0,"MIT","NORTHEAST",2,"2","ACADEMIC","LEASED","AER","(NULL)","0.00","","",42.364912106200002,-71.0887788844,922.3372036854776,922.3372036854776,"NE35","","145 BROADWAY",21-MAR-14,,,01-DEC-14,43
"NE47-201505","201505","NE47","NE47","","","","500 Technology Square",68295.01,58587.97,2086.13,"MIT","NORTHEAST",2,"2","ACADEMIC","LEASED","AER","(NULL)","148.00","1854500","1854500",42.363464579400002,-71.092581005300005,766274.785684,2957738.7084300001,"NE47","","500 TECHNOLOGY SQUARE",,,,01-DEC-14,232
"NE48-201505","201505","NE48","NE48","","","","700 Technology Square",8043.73,6437.3,797.4,"MIT","NORTHEAST",2,"2","ACADEMIC","LEASED","AER","(NULL)","84.40","1854800","1854800",42.364031195700001,-71.092727468199897,766234.21735199902,2957945.0062199901,"NE48","","700 TECHNOLOGY SQUARE",,,,01-DEC-14,52
"OC19A-201505","201505","OC19A","OC19A","","","","Bates LINAC: Administration Bldg",6766.98,5452.11,715.94,"BATES","OFFCAMPUS",1,"1","ACADEMIC","OWNED","AER","(NULL)","","1876000","1876000",42.599035742200002,-70.9809443109,795922.70283800003,3043751.42551,"OC19A","","BATES LINAC: ADMINISTRATION BLDG",,,,01-DEC-14,34
"OC19D-201505","201505","OC19D","OC19D","","","","BATES LINAC: Warehouse #2",7760.09,7211.92,0,"BATES","OFFCAMPUS",1,"1","ACADEMIC","OWNED","AER","(NULL)","","1876000","1876000",42.597125556500004,-70.979352986199899,796355.41192999901,3043057.8884999901,"OC19D","","BATES LINAC: WAREHOUSE #2",,,,01-DEC-14,3
"W7-201505","201505","W7","W7","","","","Everett Moore Baker House",133099.42,77423.81,41632.04,"MIT","WEST",2,"2","RESIDENT","OWNED","DHOA","UGR2","76.40","1345300","1345300",42.356697834999899,-71.0957921822,765418.63264600001,2955268.6408000002,"W07","EVERETT MOORE BAKER","BAKER HOUSE",01-OCT-47,,31-DEC-49,01-DEC-14,497
"OC19N-201505","201505","OC19N","OC19N","","","","BATES LINAC: Warehouse #3",8141.95,7683.4,143.22,"BATES","OFFCAMPUS",1,"1","ACADEMIC","OWNED","AER","(NULL)","","1876000","1876000",,,,,"OC19N","","BATES LINAC: WAREHOUSE #3",,,,01-DEC-14,13
"OC19Q-201505","201505","OC19Q","OC19Q","","","","BATES LINAC: Water Tower",241.54,188.14,2.51,"BATES","OFFCAMPUS",1,"1","ACADEMIC","OWNED","AER","(NULL)","","1876000","1876000",,,,,"OC19Q","","BATES LINAC: WATER TOWER",,,,01-DEC-14,3
"OC1A-201505","201505","OC1A","OC1A","","","","Edward Pennell Brooks Center",15136.28,9683.6,3351.5,"END","OFFCAMPUS",1,"1","ACADEMIC","OWNED","OTH","UGR1A3","","","",42.254343329199898,-71.194388672000002,738903.09680199903,2917857.9505699901,"OC01A","EDWARD PENNELL BROOKS","EDWARD PENNELL BROOKS CENTER",31-DEC-82,,31-DEC-83,01-DEC-14,115
"OC31-201505","201505","OC31","OC31","","","","Katahdin Hill 1",21163.64,13246.98,5884.84,"LINC","OFFCAMPUS",1,"1","ACADEMIC","OWNED","OTH","(NULL)","","","",,,,,"OC31","","KATAHDIN HILL 1",,,,01-DEC-14,95
"OC6-201505","201505","OC6","OC6","","","","645 Summer Street",2200.92,1282.67,0,"BOS","OFFCAMPUS",1,"1","SERVICE","LEASED","OTH","(NULL)","","","",,,,,"OC06","","645 SUMMER STREET",,,29-APR-08,01-DEC-14,1
"W15-201505","201505","W15","W15","","","","MIT Chapel",5339.35,2891.84,1889.57,"MIT","WEST",2,"2","SERVICE","OWNED","STAC","UGA4","33.20","1831500","1831500",42.3583268776,-71.094124939599894,765866.43793400005,2955864.4363799901,"W15","","MIT CHAPEL",01-MAY-54,,01-MAY-55,01-DEC-14,25
"W2-201505","201505","W2","W2","","","","Building W2",9599.32,5252.17,2749.42,"MIT","WEST",2,"2","RESIDENT","OWNED","DHOA","UGBR1","37.10","","",42.357256310799897,-71.093840904399897,765945.06404600001,2955474.6658000001,"W02","","BUILDING W2",31-DEC-00,01-JUL-63,31-DEC-67,01-DEC-14,64
"W61B-201505","201505","W61B","W61B","W61","MACGREGOR HOUSE","Frank S MacGregor House","Frank S MacGregor House (Wing B)",12634.2,7796.56,2861.81,"MIT","WEST",2,"2","RESIDENT","OWNED","DHOA","UGR2","","","",,,,,"W61B","","MACGREGOR HOUSE (B)",,,,01-DEC-14,95
"W61E-201505","201505","W61E","W61E","W61","MACGREGOR HOUSE","Frank S MacGregor House","Frank S MacGregor House (Wing E)",11664.6,6694.73,2737.87,"MIT","WEST",2,"2","RESIDENT","OWNED","DHOA","UGR2","","","",,,,,"W61E","","MACGREGOR HOUSE (E)",,,,01-DEC-14,91
"W61-201505","201505","W61","W61","","","","Frank S MacGregor House",171140.48,99335.26,42726.77,"MIT","WEST",2,"2","RESIDENT","OWNED","DHOA","UGR2","167.50","1347000","1347000",42.355461820800002,-71.099546628200002,764405.97842399904,2954813.4257999901,"W61","FRANK S. MACGREGOR","MACGREGOR HOUSE",01-JUL-68,,01-SEP-70,01-DEC-14,136
"W71-201505","201505","W71","W71","","","","Next House",132006.46,82568.84,34134.47,"MIT","WEST",2,"2","RESIDENT","OWNED","DHOA","UGR2","57.50","1347700","1347700",42.354704753,-71.101921184199895,763765.44724000001,2954534.5308699901,"W71","","NEXT HOUSE",01-OCT-79,,24-AUG-81,01-DEC-14,507
"W70A-201505","201505","W70A","W70A","W70","NEW HOUSE","New West Campus Houses","New West Campus Houses (Wing A)",24005.53,13173.52,8379.57,"MIT","WEST",2,"2","RESIDENT","OWNED","DHOA","UGR2","","","",,,,,"W70A","","NEW HOUSE (A)",,,,01-DEC-14,105
"W70B-201505","201505","W70B","W70B","W70","NEW HOUSE","New West Campus Houses","New West Campus Houses (Wing B)",16117.42,9959.18,4187.49,"MIT","WEST",2,"2","RESIDENT","OWNED","DHOA","UGR2","","","",,,,,"W70B","","NEW HOUSE (B)",,,,01-DEC-14,95
"W70F-201505","201505","W70F","W70F","W70","NEW HOUSE","New West Campus Houses","New West Campus Houses (Wing F)",15420.13,8893.95,4498.52,"MIT","WEST",2,"2","RESIDENT","OWNED","DHOA","UGR2","","","",,,,,"W70F","","NEW HOUSE (F)",,,,01-DEC-14,96
"W91-201505","201505","W91","W91","","","","Information Systems Operations",35748.48,20110.58,11871.58,"MIT","WEST",1,"1","SERVICE","OWNED","AER","UGB","40.70","1839100","1839100",42.354323555400001,-71.104426111099897,763089.02705499902,2954392.4647400002,"W91","","INFORMATION SYSTEMS OPERATIONS",31-DEC-47,,31-DEC-49,01-DEC-14,170
"WW15-201505","201505","WW15","WW15","","","","Building WW15",42145.75,37499.92,2824.04,"MIT","WESTWEST",2,"2","SERVICE","OWNED","AER","UGS2","16.00","1846500","1846500",42.355361358800003,-71.109469719299895,761724.03371300001,2954764.3792699901,"WW15","","BUILDING WW15",31-DEC-69,,,01-DEC-14,106
"W8-201505","201505","W8","W8","","","","Harold Whitworth Pierce Boathouse",21710.72,16613.48,3721.46,"MIT","WEST",2,"2","SERVICE","OWNED","STAC","UGA3","24.10","1830800","1830800",42.355312426200001,-71.096827205300002,765141.26844400004,2954762.4460900002,"W08","HAROLD WHITWORTH PIERCE","PIERCE BOATHOUSE",01-JUN-65,,31-DEC-67,01-DEC-14,34
"W85B-201505","201505","W85B","W85B","W85ABC","WESTGATE (ABC)","Westgate ABC","Westgate B Married Student Housing",4635.79,3705.6,453.68,"MIT","WEST",2,"2","RESIDENT","OWNED","DHOA","(NULL)","","","",,,,,"W85B","","WESTGATE (B)",,,,01-DEC-14,10
"W85E-201505","201505","W85E","W85E","W85DE","WESTGATE (DE)","Westgate DE","Westgate E Married Student Housing",4653.21,3704.69,449.76,"MIT","WEST",2,"2","RESIDENT","OWNED","DHOA","(NULL)","","","",,,,,"W85E","","WESTGATE (E)",,,,01-DEC-14,10
"W85G-201505","201505","W85G","W85G","W85FG","WESTGATE (FG)","Westgate FG","Westgate G Married Student Housing",4653.21,3704.69,449.76,"MIT","WEST",2,"2","RESIDENT","OWNED","DHOA","(NULL)","","","",,,,,"W85G","","WESTGATE (G)",,,,01-DEC-14,10
"4-201505","201505","4","4","","","","Richard Cockburn MacLaurin Buildings (4)",162564.75,100586.25,45067.5,"MIT","MAIN GROUP",2,"2","ACADEMIC","OWNED","AER","UGBA3","79.70","1810400","1810400",42.359443063500002,-71.091086509600004,766685.70812099904,2956275.11901,"04","R. C. MACLAURIN","MACLAURIN BUILDINGS (4)",01-JUL-13,,31-DEC-16,01-DEC-14,492
"7-201505","201505","7","7","","","","William Barton Rogers Building",100553.38,50752.13,36508.04,"MIT","MAIN GROUP",2,"2","ACADEMIC","OWNED","AER","UGA3B","103.70","1810700","1810700",42.3592892299,-71.093186760899897,766118.33409300004,2956216.3448999901,"07","WILLIAM BARTON ROGERS","WILLIAM BARTON ROGERS BUILDING",01-MAY-37,,31-DEC-38,01-DEC-14,324
"13-201505","201505","13","13","","","","Vannevar Bush Building",183168.57,96713.05,71775.17,"MIT","MAIN GROUP",2,"2","ACADEMIC","OWNED","AER","UGB","69.10","1811300","1811300",42.3599438607,-71.0925515222999,766288.88213599904,2956455.7255299902,"13","VANNEVAR BUSH","BUSH BUILDING",01-APR-63,,01-JUN-65,01-DEC-14,573
"41-201505","201505","41","41","","","","Building 41",26078.68,20161.34,4267.86,"MIT","MAIN GROUP",2,"2","ACADEMIC","OWNED","AER","UGB","61.20","1814100","1814100",42.360760073199899,-71.0941602993,765852.661998,2956751.0965800001,"41","","BUILDING 41",31-DEC-15,,31-DEC-17,01-DEC-14,106
"42-201505","201505","42","42","","","","William R. Dickson Cogeneration Plant",79050.49,4380,67876.13,"MIT","MAIN GROUP",0,"0","SERVICE","OWNED","OTH","UGF1","64.80","1814200","1814200",42.361105970300002,-71.0935165170999,766026.05418700003,2956877.9774199901,"42","","COGENERATION PLANT",31-DEC-15,,31-DEC-16,01-DEC-14,80
"54-201505","201505","54","54","","","","Cecil And Ida Green Building",127615.39,69203.59,42058.15,"MIT","MAIN GROUP",2,"2","ACADEMIC","OWNED","AER","UGBA3","275.00","1815400","1815400",42.360323853600001,-71.089326129599897,767159.94479500002,2956598.38283,"54","CECIL HOWARD & IDA FLANSBURGH GREEN","GREEN BUILDING",01-JAN-62,,01-JUL-64,01-DEC-14,570
"64B-201505","201505","64B","64B","64","EAST CAMPUS: WALCOTT BEMIS GOODALE","Alumni Houses: Walcott Bemis Goodale","Alumni Houses: Bemis",23656.67,14584.37,6483.26,"MIT","MAIN GROUP",2,"2","RESIDENT","OWNED","DHOA","(NULL)","","","",,,,,"64B","ALBERT F. BEMIS","EAST CAMPUS: BEMIS",,,,01-DEC-14,114
"64W-201505","201505","64W","64W","64","EAST CAMPUS: WALCOTT BEMIS GOODALE","Alumni Houses: Walcott Bemis Goodale","Alumni Houses: Walcott",24988.56,16833.91,5711.41,"MIT","MAIN GROUP",2,"2","RESIDENT","OWNED","DHOA","(NULL)","","","",,,,,"64W","WILLIAM W. WALCOTT","EAST CAMPUS: WALCOTT",,,,01-DEC-14,123
"68-201505","201505","68","68","","","","David H. Koch Biology Building",260374,155877.11,80655.18,"MIT","MAIN GROUP",2,"2","ACADEMIC","OWNED","AER","UGB","104.80","1816800","1816800",42.361621667199898,-71.088638563999893,767343.49146299902,2957072.2273900001,"68","","KOCH BIOLOGY BUILDING",01-APR-91,,07-OCT-94,01-DEC-14,975
"76-201505","201505","76","76","","","","David H. Koch Institute For Integrative Cancer Research",367688.6,200729.84,124585.07,"MIT","MAIN GROUP",2,"2","ACADEMIC","OWNED","AER","(NULL)","0.00","1810700","1810700",42.3622958196,-71.0892756273999,767170.13363099901,2957317.0729999901,"76","","D H KOCH IN FICR",,,,01-DEC-14,923
"E33-201505","201505","E33","E33","","","","Rinaldi Tile",7979.62,6906.99,303.46,"MIT","EAST",2,"2","ACADEMIC","OWNED","AER","UGS1B","35.00","1823300","1823300",42.361290200699898,-71.085984310800001,768061.42547899904,2956954.90552,"E33","","RINALDI TILE",31-DEC-25,,,01-DEC-14,32
"E34-201505","201505","E34","E34","","","","Building E34",27424.07,15921.07,8443.21,"MIT","EAST",2,"2","ACADEMIC","OWNED","AER","UGB","56.60","1823400","1823400",42.361449687499899,-71.085952631400005,768069.70517800003,2957013.0672800001,"E34","","BUILDING E34",31-DEC-24,30-APR-82,01-MAR-75,01-DEC-14,168
"NE49-201505","201505","NE49","NE49","","","","600 Technology Square",71648.86,66681.41,349.28,"MIT","NORTHEAST",2,"2","SERVICE","LEASED","AER","(NULL)","84.90","1854900","1854900",42.363390018099899,-71.093118948699896,766129.53298000002,2957710.84277,"NE49","","600 TECHNOLOGY SQUARE",,,,01-DEC-14,461
"NW10-201505","201505","NW10","NW10","","","","Edgerton House",132529.78,82366.87,31273.3,"MIT","NORTHWEST",2,"2","RESIDENT","OWNED","DHOA","UGR2","56.50","1347800","1347800",42.360320157499899,-71.098137294500006,764778.56585200003,2956585.6932899901,"NW10","DR. HAROLD E. EDGERTON","EDGERTON HOUSE",31-DEC-22,,,01-DEC-14,250
"NW13-201505","201505","NW13","NW13","","","","Building NW13",61259.54,46638.16,9575.28,"MIT","NORTHWEST",2,"2","ACADEMIC","OWNED","AER","UGB","28.30","1841300","1841300",42.359884899999898,-71.097361865600007,764988.88910499902,2956428.0648400001,"NW13","","BUILDING NW13",21-DEC-17,01-JAN-60,31-DEC-63,01-DEC-14,141
"NW15-201505","201505","NW15","NW15","","","","Francis Bitter Magnet Laboratory (NW15)",16137.29,14768.86,277.79,"MIT","NORTHWEST",2,"2","ACADEMIC","OWNED","AER","UGF1","34.20","1841500","1841500",42.3593490344999,-71.098256602700005,764747.98736300005,2956231.64432,"NW15","DR. FRANCIS BITTER","FRANCIS BITTER MAGNET LAB (NW15)",01-DEC-61,,31-DEC-62,01-DEC-14,11
"NW35-201505","201505","NW35","NW35","","","","Ashdown House",252835.49,157640.89,58073.35,"MIT","NORTHWEST",2,"2","RESIDENT","OWNED","DHOA","UGR2","60.00","1345770","1345770",42.358797853399899,-71.101439278499896,763888.73286300001,2956026.7473800001,"NW35","","ASHDOWN HOUSE",01-JAN-08,,01-JUL-08,01-DEC-14,568
"NW61-201505","201505","NW61","NW61","","","","Random Hall",39469.53,25567.13,7590.42,"MIT","NORTHWEST",2,"2","RESIDENT","OWNED","DHOA","UGR2","48.30","1347400","1347400",42.361844560400002,-71.098285796400006,764735.81395800004,2957141.0276600001,"NW61","","RANDOM HALL",30-DEC-99,,31-DEC-68,01-DEC-14,185
"OC19H-201505","201505","OC19H","OC19H","","","","BATES LINAC: Engineering",23160.22,19138.64,1981.35,"BATES","OFFCAMPUS",1,"1","ACADEMIC","OWNED","AER","(NULL)","","1876000","1876000",,,,,"OC19H","","BATES LINAC: ENGINEERING",,,,01-DEC-14,57
"OC20-201505","201505","OC20","OC20","","","","8 Tyler Street",18705.96,18190.1,0,"SOM","OFFCAMPUS",1,"1","SERVICE","LEASED","AER","(NULL)","0.00","","",,,,,"OC20","","8 TYLER STREET",21-MAR-14,,06-FEB-12,01-DEC-14,5
"OC25-201505","201505","OC25","OC25","","","","Haystack Observatory",42922.56,32925.58,4266.76,"HAY","OFFCAMPUS",1,"1","ACADEMIC","OWNED","AER","UGB","","","",42.623347432700001,-71.488239495399895,659331.98663399904,3052186.7655199901,"OC25","","HAYSTACK OBSERVATORY",,,,01-DEC-14,155
"W35-201505","201505","W35","W35","","","","Zesiger Sports & Fitness Center",122080.04,76299.23,36416.07,"MIT","WEST",2,"2","SERVICE","OWNED","STAC","UGA1A3BH","65.70","1833500","1833500",42.358715628699898,-71.095750510499897,765426.41104399902,2956004.01868999,"W35","ALBERT & BARRIE ZESIGER","SPORTS & FITNESS CENTER",01-OCT-00,,01-SEP-02,01-DEC-14,219
"W51-201505","201505","W51","W51","","","","Burton-Conner House",167922.77,105084.27,37556.34,"MIT","WEST",2,"2","RESIDENT","OWNED","DHOA","UGR2","72.00","1345900","1345900",42.3559694092,-71.098124338900007,764789.537197,2955000.20927,"W51","BURTON, ARTHUR J. CONNER","BURTON-CONNER HOUSE",31-DEC-27,31-DEC-47,31-DEC-48,01-DEC-14,683
"W31-201505","201505","W31","W31","","","","David Flett du Pont Athletic Gymnasium",71443.5,53401.65,9744.51,"MIT","WEST",2,"2","SERVICE","OWNED","STAC","UGA3B","52.60","1833100","1833100",42.359637756200001,-71.095168238499895,765582.19012499903,2956340.8070499902,"W31","DAVID FLETT DUPONT","DU PONT ATHLETIC GYMNASIUM",31-DEC-02,01-SEP-57,01-SEP-57,01-DEC-14,146
"W61C-201505","201505","W61C","W61C","W61","MACGREGOR HOUSE","Frank S MacGregor House","Frank S MacGregor House (Wing C)",12634.2,7814.56,2844.4,"MIT","WEST",2,"2","RESIDENT","OWNED","DHOA","UGR2","","","",,,,,"W61C","","MACGREGOR HOUSE (C)",,,,01-DEC-14,95
"W61H-201505","201505","W61H","W61H","W61","MACGREGOR HOUSE","Frank S MacGregor House","Frank S MacGregor House (Wing H)",13259.73,9390.22,1564.62,"MIT","WEST",2,"2","RESIDENT","OWNED","DHOA","UGR2","","","",,,,,"W61H","","MACGREGOR HOUSE (H)",,,,01-DEC-14,103
"W61J-201505","201505","W61J","W61J","W61","MACGREGOR HOUSE","Frank S MacGregor House","Frank S MacGregor House (Wing J)",9271.12,6133.88,1247.18,"MIT","WEST",2,"2","RESIDENT","OWNED","DHOA","UGR2","","","",,,,,"W61J","","MACGREGOR HOUSE (J)",,,,01-DEC-14,75
"W61M-201505","201505","W61M","W61M","W61","MACGREGOR HOUSE","Frank S MacGregor House","Frank S MacGregor House (Wing M)",4827.23,4368.53,24.48,"MIT","WEST",2,"2","RESIDENT","OWNED","DHOA","UGR2","","","",,,,,"W61M","","MACGREGOR HOUSE (M)",,,,01-DEC-14,4
"W64-201505","201505","W64","W64","","","","Building W64",13367.83,9321.57,2817.74,"MIT","WEST",2,"2","SERVICE","OWNED","OTH","(NULL)","0.00","","",,,,,"W64","David. H. Koch","BUILDING W64",02-SEP-13,,01-OCT-13,01-DEC-14,62
"W70C-201505","201505","W70C","W70C","W70","NEW HOUSE","New West Campus Houses","New West Campus Houses (Wing C)",17991.16,11584.7,4274.43,"MIT","WEST",2,"2","RESIDENT","OWNED","DHOA","UGR2","","","",,,,,"W70C","","NEW HOUSE (C)",,,,01-DEC-14,104
"W85K-201505","201505","W85K","W85K","W85HJK","WESTGATE (HJK)","Westgate HJK","Westgate K Married Student Housing",4687.15,3721.22,460.59,"MIT","WEST",2,"2","RESIDENT","OWNED","DHOA","(NULL)","","","",,,,,"W85K","","WESTGATE (K)",,,,01-DEC-14,10
"64-201505","201505","64","64","","","","Alumni Houses: Walcott Bemis Goodale",73432.63,48459.39,17436.67,"MIT","MAIN GROUP",2,"2","RESIDENT","OWNED","DHOA","UGR2","52.30","","",42.360404624799898,-71.088141156600003,767480.06446000002,2956629.36143,"64","ALBERT F. BEMIS, WILLIAM W. WALCOTT, CHARLES WARREN GOODALE","EAST CAMPUS: WALCOTT BEMIS GOODALE",01-SEP-23,,01-APR-24,01-DEC-14,0
"8-201505","201505","8","8","","","","Building 8",65896.06,37271.08,20859.74,"MIT","MAIN GROUP",2,"2","ACADEMIC","OWNED","AER","UGBA3","64.00","1810800","1810800",42.359992789400003,-71.090863924700002,766744.905118,2956475.7390000001,"08","","BUILDING 8",01-JUL-13,,31-DEC-16,01-DEC-14,260
"E1-201505","201505","E1","E1","","","","Gray House (Formerly President's House)",18642.53,11190.61,4967.95,"MIT","EAST",1,"1","RESIDENT","OWNED","AER","UGR4","52.00","1820100","1820100",42.3596024954999,-71.086964293400001,767799.54882200004,2956338.5876600002,"E01","","GRAY HOUSE",01-JUL-13,,01-JUL-17,01-DEC-14,139
"14-201505","201505","14","14","","","","Charles Hayden Memorial Library",154515.73,103918.34,38225.86,"MIT","MAIN GROUP",2,"2","ACADEMIC","OWNED","AER","UGA3","70.40","1811400","1811400",42.359182609800001,-71.0893039993,767167.92838699894,2956182.5196099901,"14","CHARLES HAYDEN","HAYDEN MEMORIAL LIBRARY",05-APR-48,,31-DEC-51,01-DEC-14,94
"14E-201505","201505","14E","14E","14","HAYDEN MEMORIAL LIBRARY","Charles Hayden Memorial Library","Charles Hayden Memorial Library (East Wing)",21022.71,15903.62,3372.01,"MIT","MAIN GROUP",2,"2","ACADEMIC","OWNED","AER","(NULL)","0.00","","",,,,,"14E","","HAYDEN MEMORIAL LIBRARY (E)",,,,01-DEC-14,90
"16-201505","201505","16","16","","","","Dorrance Building",116490.06,57877.58,47073.19,"MIT","MAIN GROUP",2,"2","ACADEMIC","OWNED","AER","UGBA3","122.90","1811600","1811600",42.360434783999899,-71.090592766599897,766817.41790100001,2956637.1625100002,"16","JOHN THOMPSON DORRANCE","DORRANCE BUILDING",01-NOV-50,,01-JUN-52,01-DEC-14,373
"24-201505","201505","24","24","","","","Building 24",77685.93,50027.02,21121.3,"MIT","MAIN GROUP",2,"2","ACADEMIC","OWNED","AER","UGB","84.10","1812400","1812400",42.360666501600001,-71.092014636299893,766432.72732399905,2956719.7637100001,"24","","BUILDING 24",31-DEC-41,,31-DEC-41,01-DEC-14,307
"17-201505","201505","17","17","","","","Wright Brothers Wind Tunnel",6074.7,5585.84,263.41,"MIT","MAIN GROUP",2,"2","ACADEMIC","OWNED","AER","UGB","22.00","1811700","1811700",42.360112995999899,-71.093493258699894,766034.06507799902,2956516.1469700001,"17","WILBUR & ORVILLE WRIGHT","WRIGHT BROTHERS WIND TUNNEL",01-DEC-37,,01-JAN-39,01-DEC-14,14
"33-201505","201505","33","33","","","","Daniel Guggenheim Aeronautical Laboratory",55046.17,36094.91,13256.26,"MIT","MAIN GROUP",2,"2","ACADEMIC","OWNED","AER","UGBA3","56.50","1813300","1813300",42.360178375499899,-71.093745872599897,765965.67766299902,2956539.6472800002,"33","DANIEL GUGGENHEIM","GUGGENHEIM LABORATORY",01-APR-27,,01-JUL-28,01-DEC-14,170
"56-201505","201505","56","56","","","","Uncas A Whitaker Building",143681.84,78129.65,50261.23,"MIT","MAIN GROUP",2,"2","ACADEMIC","OWNED","AER","UGB","118.80","1815600","1815600",42.360699525199898,-71.089862504600006,767014.32081099902,2956734.58778999,"56","UNCAS A. & HELEN F. WHITAKER","WHITAKER BUILDING",01-SEP-63,,01-APR-65,01-DEC-14,462
"57-201505","201505","57","57","","","","MIT Alumni Pool",39121.04,22725.98,10516.52,"MIT","MAIN GROUP",2,"2","SERVICE","OWNED","STAC","UGA3","41.10","1815700","1815700",42.3611422938,-71.090140009199899,766938.54517199902,2956895.58099999,"57","","MIT ALUMNI POOL",01-JUL-39,,01-MAY-40,01-DEC-14,52
"62H-201505","201505","62H","62H","62","ALUMNI HOUSES: MUNROE HAYDEN WOOD","Alumni Houses: Munroe Hayden Wood","Alumni Houses: Hayden",26411.82,16932.94,6760.5,"MIT","MAIN GROUP",2,"2","RESIDENT","OWNED","DHOA","(NULL)","","1346200","1346200",,,,,"62H","HENRY R. HAYDEN","ALUMNI HOUSES: HAYDEN",,,,01-DEC-14,117
"62M-201505","201505","62M","62M","62","ALUMNI HOUSES: MUNROE HAYDEN WOOD","Alumni Houses: Munroe Hayden Wood","Alumni Houses: Munroe",25568.41,18125.96,4960.76,"MIT","MAIN GROUP",2,"2","RESIDENT","OWNED","DHOA","(NULL)","","","",,,,,"62M","JAMES P. MUNROE","ALUMNI HOUSES: MUNROE",,,,01-DEC-14,102
"62W-201505","201505","62W","62W","62","ALUMNI HOUSES: MUNROE HAYDEN WOOD","Alumni Houses: Munroe Hayden Wood","Alumni Houses: Wood",25173.77,15513.88,7215.29,"MIT","MAIN GROUP",2,"2","RESIDENT","OWNED","DHOA","(NULL)","","","",,,,,"62W","KENNETH F. WOOD","ALUMNI HOUSES: WOOD",,,,01-DEC-14,111
"E23-201505","201505","E23","E23","","","","Health Services",101813.25,65358.84,23768.81,"MIT","EAST",2,"2","SERVICE","OWNED","AER","UGBI2","71.10","1822300","1822300",42.361022122599898,-71.086632158800001,767886.80826600001,2956856.3629100001,"E23","","HEALTH SERVICES",21-AUG-79,,15-FEB-82,01-DEC-14,620
"E40-201505","201505","E40","E40","","","","The Muckley Building",106714.57,71235.6,24569.11,"MIT","EAST",2,"2","ACADEMIC","OWNED","AER","UGB","64.50","1824000","1824000",42.361163190500001,-71.084853018000004,768367.39924900001,2956910.1065600002,"E40","DWIGHT S. MUCKLEY","MUCKLEY BUILDING",01-MAY-30,01-JUN-68,31-DEC-69,01-DEC-14,453
"EE19-201505","201505","EE19","EE19","","","","Building EE19",20514.89,18402.12,117.63,"MIT","",1,"1","ACADEMIC","LEASED","(NULL)","(NULL)","0.00","","",,,,,"EE19","","BUILDING EE19",21-MAR-14,,,01-DEC-14,145
"OC21-201505","201505","OC21","OC21","","","","Wallace Astrophysical Observatory",3109.94,2815.19,0,"HAY","OFFCAMPUS",1,"1","ACADEMIC","OWNED","AER","UGBR3","","","",42.610434591000001,-71.483965104199896,660483.31698200002,3047480.8814400001,"OC21","GEORGE R. WALLACE JR.","WALLACE ASTROPHYSICAL OBSERVATORY",,,14-OCT-71,01-DEC-14,16
"OC22-201505","201505","OC22","OC22","","","","Westford Optics Facility (Haystack)",881.78,794.16,0.03,"HAY","OFFCAMPUS",1,"1","ACADEMIC","OWNED","AER","UGB","","1878000","1878000",42.6118587680999,-71.484673941500006,660292.40228000004,3047999.8853500001,"OC22","","WESTFORD OPTICS FACILITY (HAYSTACK)",,,,01-DEC-14,3
"OC32-201505","201505","OC32","OC32","","","","Lexington Field House",18635.38,14812.52,2425.79,"LINC","OFFCAMPUS",1,"1","ACADEMIC","OWNED","OTH","(NULL)","","","",,,,,"OC32","","LEXINGTON FIELD HOUSE",,,,01-DEC-14,19
"OC32A-201505","201505","OC32A","OC32A","","","","Balloon House A",1585.32,0,1180.83,"LINC","OFFCAMPUS",1,"1","SERVICE","OWNED","OTH","(NULL)","","","",,,,,"OC32A","","BALLOON HOUSE A",,,,01-DEC-14,4
"OC35-201505","201505","OC35","OC35","","","","Annex V",25834.27,16761.01,6385.23,"LINC","OFFCAMPUS",1,"1","ACADEMIC","OWNED","OTH","(NULL)","","","",,,,,"OC35","","ANNEX V",,,,01-DEC-14,91
"W45-201505","201505","W45","W45","","","","West Parking Garage",186998.09,180438.3,3238.58,"MIT","WEST",2,"2","SERVICE","OWNED","GAR","UGS2","42.10","1834500","1834500",42.359069403500001,-71.097601016499894,764925.65476599894,2956130.57693,"W45","","WEST GARAGE",31-DEC-63,,01-JUN-64,01-DEC-14,27
"W51C-201505","201505","W51C","W51C","","","","405 Memorial Drive - Pi Phi",17286.8,10707.53,3946.3,"MIT","WEST",2,"2","RESIDENT","OWNED","DHOA","UGR2","","","",42.356186612899897,-71.097241993799898,765027.65080299904,2955080.4874700001,"W51C","","405 MEMORIAL DRIVE",,,,01-DEC-14,85
"W53A-201505","201505","W53A","W53A","","","","J B Carr Indoor Tennis Facility (Office)",1159.47,694.95,259.08,"MIT","WEST",2,"2","SERVICE","OWNED","STAC","UGB","12.40","","",42.3569779197,-71.097351458299897,764996.70269199903,2955368.7158300001,"W53A","JASPER B. CARR","CARR INDOOR TENNIS FACILITY (OFFICE)",01-OCT-84,,01-MAY-85,01-DEC-14,10
"W53B-201505","201505","W53B","W53B","","","","J B Carr Indoor Tennis Facility (Office)",140,121.25,0,"MIT","WEST",2,"2","SERVICE","OWNED","STAC","UGB","9.00","","",42.356966364400002,-71.0969470836,765106.01835599903,2955365.0210500001,"W53B","","DUPONT TENNIS COURTS (OFFICE)",,,,01-DEC-14,2
"W53D-201505","201505","W53D","W53D","","","","J B Carr Indoor Tennis Facility(Svc)",142.94,112.5,0,"MIT","WEST",2,"2","SERVICE","OWNED","STAC","UGB","","","",,,,,"W53D","","CARR INDOOR TENNIS FACILITY(SVC)",,,,01-DEC-14,1
"W70D-201505","201505","W70D","W70D","W70","NEW HOUSE","New West Campus Houses","New West Campus Houses (Wing D)",16559.95,10065.74,4458.48,"MIT","WEST",2,"2","RESIDENT","OWNED","DHOA","UGR2","","","",,,,,"W70D","","NEW HOUSE (D)",,,,01-DEC-14,98
"W84-201505","201505","W84","W84","","","","Tang Residence Hall",152314.7,108737.65,26785.79,"MIT","WEST",2,"2","RESIDENT","OWNED","DHOA","UGR2","240.40","1348500","1348500",42.354351753400003,-71.103479493899897,763344.84496699902,2954403.9287700001,"W84","PING YUAN TANG","TANG HALL",16-NOV-70,,31-DEC-73,01-DEC-14,306
"1-201506","201506","1","1","","","","Henry L Pierce Engineering Laboratory",116239.37,76174.05,28714.12,"MIT","MAIN GROUP",2,"2","ACADEMIC","OWNED","AER","UGBA3","81.40","1810100","1810100",42.358085904500001,-71.092357234000005,766344.62904499902,2955778.8992900001,"01","HENRY L. PIERCE","PIERCE LABORATORY",31-DEC-13,,31-DEC-17,01-JAN-15,407
"2-201506","201506","2","2","","","","Building 2",121649.77,73934.31,35902.05,"MIT","MAIN GROUP",2,"2","ACADEMIC","OWNED","AER","UGBA3","82.60","1810200","1810200",42.358812732399898,-71.090182689000002,766931.08927,2956046.58619999,"02","","BUILDING 2",01-JUL-13,,31-DEC-16,01-JAN-15,354
"3-201506","201506","3","3","","","","Richard Cockburn MacLaurin Buildings (3)",160124.08,104190.06,40757.84,"MIT","MAIN GROUP",2,"2","ACADEMIC","OWNED","AER","UGBA3","85.50","1810300","1810300",42.3590069408,-71.0923974098,766332.166723,2956114.4910200001,"03","R. C. MACLAURIN","MACLAURIN BUILDINGS (3)",01-JUL-13,,31-DEC-16,01-JAN-15,535
"4-201506","201506","4","4","","","","Richard Cockburn MacLaurin Buildings (4)",162564.75,100586.25,45067.5,"MIT","MAIN GROUP",2,"2","ACADEMIC","OWNED","AER","UGBA3","79.70","1810400","1810400",42.359443063500002,-71.091086509600004,766685.70812099904,2956275.11901,"04","R. C. MACLAURIN","MACLAURIN BUILDINGS (4)",01-JUL-13,,31-DEC-16,01-JAN-15,492
"5-201506","201506","5","5","","","","Pratt School Of Naval Architecture And Marine Engineering",80942.35,55225.95,16728.77,"MIT","MAIN GROUP",2,"2","ACADEMIC","OWNED","AER","UGBA3","70.70","1810500","1810500",42.358708761300001,-71.092923465699897,766190.50561899901,2956005.1499100002,"05","CHARLES HERBERT PRATT","PRATT SCHOOL",01-DEC-19,,31-DEC-20,01-JAN-15,275
"6-201506","201506","6","6","","","","George Eastman Research",88826.92,53881.73,22701.76,"MIT","MAIN GROUP",2,"2","ACADEMIC","OWNED","AER","UGBA3","81.40","1810600","1810600",42.359538878400002,-71.090454767400004,766856.28272799903,2956310.85519,"06","GEORGE EASTMAN","EASTMAN LABORATORIES",31-DEC-31,,31-DEC-33,01-JAN-15,312
"7-201506","201506","7","7","","","","William Barton Rogers Building",100553.38,50752.13,36508.04,"MIT","MAIN GROUP",2,"2","ACADEMIC","OWNED","AER","UGA3B","103.70","1810700","1810700",42.3592892299,-71.093186760899897,766118.33409300004,2956216.3448999901,"07","WILLIAM BARTON ROGERS","WILLIAM BARTON ROGERS BUILDING",01-MAY-37,,31-DEC-38,01-JAN-15,324
"8-201506","201506","8","8","","","","Building 8",65896.06,37271.08,20859.74,"MIT","MAIN GROUP",2,"2","ACADEMIC","OWNED","AER","UGBA3","64.00","1810800","1810800",42.359992789400003,-71.090863924700002,766744.905118,2956475.7390000001,"08","","BUILDING 8",01-JUL-13,,31-DEC-16,01-JAN-15,260
"9-201506","201506","9","9","","","","Building 9",75420.83,36371.35,28964.52,"MIT","MAIN GROUP",2,"2","ACADEMIC","OWNED","AER","UGBA3","83.90","1810900","1810900",42.359749929400003,-71.093561749900005,766016.18442099902,2956383.7499500001,"09","","BUILDING 9",01-APR-66,,01-DEC-67,01-JAN-15,313
"10-201506","201506","10","10","","","","Richard Cockburn MacLaurin Buildings (10)",143921.25,86493.58,42183.9,"MIT","MAIN GROUP",2,"2","ACADEMIC","OWNED","AER","UGA3B","149.20","1811000","1811000",42.359677380100003,-71.092016473499896,766433.95508400002,2956359.3054300002,"10","R. C. MACLAURIN","MACLAURIN BUILDINGS (10)",01-JUL-13,,31-DEC-16,01-JAN-15,567
"11-201506","201506","11","11","","","","Homberg Building",26705.26,18688.68,4787.15,"MIT","MAIN GROUP",2,"2","ACADEMIC","OWNED","AER","UGB","72.50","1811100","1811100",42.359522010100001,-71.092772666200005,766229.84780500003,2956301.7088100002,"11","RICHARD MEYER HOMBERG","HOMBERG BUILDING",01-JUN-27,,31-DEC-28,01-JAN-15,189
"12-201506","201506","12","12","","","","Building 12",55403.21,36173.72,14274.26,"MIT","MAIN GROUP",2,"2","ACADEMIC","OWNED","AER","UGB","42.20","1811200","1811200",42.3602054061,-71.091559902100002,766556.43215699901,2956552.3192799902,"12","","BUILDING 12",01-SEP-41,,01-JUL-42,01-JAN-15,242
"13-201506","201506","13","13","","","","Vannevar Bush Building",183168.57,96713.05,71775.17,"MIT","MAIN GROUP",2,"2","ACADEMIC","OWNED","AER","UGB","69.10","1811300","1811300",42.3599438607,-71.0925515222999,766288.88213599904,2956455.7255299902,"13","VANNEVAR BUSH","BUSH BUILDING",01-APR-63,,01-JUN-65,01-JAN-15,573
"14-201506","201506","14","14","","","","Charles Hayden Memorial Library",154515.73,103918.34,38225.86,"MIT","MAIN GROUP",2,"2","ACADEMIC","OWNED","AER","UGA3","70.40","1811400","1811400",42.359182609800001,-71.0893039993,767167.92838699894,2956182.5196099901,"14","CHARLES HAYDEN","HAYDEN MEMORIAL LIBRARY",05-APR-48,,31-DEC-51,01-JAN-15,94
"16-201506","201506","16","16","","","","Dorrance Building",116490.06,57877.58,47073.19,"MIT","MAIN GROUP",2,"2","ACADEMIC","OWNED","AER","UGBA3","122.90","1811600","1811600",42.360434783999899,-71.090592766599897,766817.41790100001,2956637.1625100002,"16","JOHN THOMPSON DORRANCE","DORRANCE BUILDING",01-NOV-50,,01-JUN-52,01-JAN-15,373
"17-201506","201506","17","17","","","","Wright Brothers Wind Tunnel",6074.7,5585.84,263.41,"MIT","MAIN GROUP",2,"2","ACADEMIC","OWNED","AER","UGB","22.00","1811700","1811700",42.360112995999899,-71.093493258699894,766034.06507799902,2956516.1469700001,"17","WILBUR & ORVILLE WRIGHT","WRIGHT BROTHERS WIND TUNNEL",01-DEC-37,,01-JAN-39,01-JAN-15,14
"18-201506","201506","18","18","","","","Camille Edouard Dreyfus Building",133552.11,76459.68,40382.82,"MIT","MAIN GROUP",2,"2","ACADEMIC","OWNED","AER","UGB","82.50","1811800","1811800",42.360069747200001,-71.089821313800002,767026.55760299903,2956505.1372199901,"18","CAMILLE EDOUARD DREYFUS","DREYFUS BUILDING",01-MAY-67,,15-DEC-69,01-JAN-15,512
"24-201506","201506","24","24","","","","Building 24",77685.93,50027.02,21121.3,"MIT","MAIN GROUP",2,"2","ACADEMIC","OWNED","AER","UGB","84.10","1812400","1812400",42.360666501600001,-71.092014636299893,766432.72732399905,2956719.7637100001,"24","","BUILDING 24",31-DEC-41,,31-DEC-41,01-JAN-15,307
"26-201506","201506","26","26","","","","Karl Taylor Compton Laboratories",133545.12,80689.29,42202.87,"MIT","MAIN GROUP",2,"2","ACADEMIC","OWNED","AER","UGBA3","78.70","1812600","1812600",42.360857952400003,-71.091152937100006,766665.28283200006,2956790.6472399901,"26","KARL TAYLOR COMPTON","COMPTON LABORATORIES",01-JUN-55,,01-FEB-57,01-JAN-15,378
"31-201506","201506","31","31","","","","Sloan Laboratories For Aircraft & Automotive Engineering",63579.46,47756.82,10909.03,"MIT","MAIN GROUP",2,"2","ACADEMIC","OWNED","AER","UGB","46.20","1813100","1813100",42.360373622600001,-71.093062013799894,766150.16447099904,2956611.68034,"31","ALFRED P. SLOAN JR.","SLOAN LABORATORIES",31-DEC-28,,31-DEC-28,01-JAN-15,221
"32-201506","201506","32","32","","","","Ray and Maria Stata Center",464004.84,286244.98,121735.52,"MIT","MAIN GROUP",2,"2","ACADEMIC","OWNED","AER","(NULL)","140.00","1813200","1813200",42.361596720199898,-71.090568544199897,766821.93192500004,2957060.6268500001,"32","RAY STATA '57","STATA CENTER",,,19-MAR-04,01-JAN-15,1317
"33-201506","201506","33","33","","","","Daniel Guggenheim Aeronautical Laboratory",55046.17,36094.91,13256.26,"MIT","MAIN GROUP",2,"2","ACADEMIC","OWNED","AER","UGBA3","56.50","1813300","1813300",42.360178375499899,-71.093745872599897,765965.67766299902,2956539.6472800002,"33","DANIEL GUGGENHEIM","GUGGENHEIM LABORATORY",01-APR-27,,01-JUL-28,01-JAN-15,170
"34-201506","201506","34","34","","","","EG&G Education Center",26966.05,14658.72,9148.25,"MIT","MAIN GROUP",2,"2","ACADEMIC","OWNED","AER","UGA3","81.30","1813400","1813400",42.361138247100001,-71.0919512822,766449.027596,2956891.7591599901,"34","HAROLD E. EDGERTON, KENNETH H. GERMESHAUSEN, HERBERT E. GRIER","EG&G EDUCATION CENTER",31-DEC-82,,31-DEC-83,01-JAN-15,62
"35-201506","201506","35","35","","","","Sloan Laboratory",68012.32,41750.9,18801.94,"MIT","MAIN GROUP",2,"2","ACADEMIC","OWNED","AER","UGBA3","80.30","1813500","1813500",42.360381183800001,-71.094028140399899,765889.03724800004,2956613.1916499902,"35","ALFRED P. SLOAN JR.","SLOAN LABORATORY",01-AUG-50,,01-JUN-52,01-JAN-15,249
"36-201506","201506","36","36","","","","Fairchild Buildings (36)",145819.4,71387.62,58854.35,"MIT","MAIN GROUP",2,"2","ACADEMIC","OWNED","AER","UGB","117.40","1813600","1813600",42.3614372153,-71.0916675836,766525.17992599902,2957001.0762499901,"36","SHERMAN M. FAIRCHILD","FAIRCHILD BUILDING (36)",12-APR-71,,01-OCT-73,01-JAN-15,587
"37-201506","201506","37","37","","","","Ronald E McNair Building",102832.84,56088.11,32519.06,"MIT","MAIN GROUP",2,"2","ACADEMIC","OWNED","AER","UGB","89.70","1813700","1813700",42.360684242200001,-71.093247445399896,766099.50816600001,2956724.6375299902,"37","RONALD E. MCNAIR","MCNAIR BUILDING",01-FEB-66,,31-DEC-69,01-JAN-15,401
"38-201506","201506","38","38","","","","Fairchild Buildings (38)",84329.46,56062.43,19933.08,"MIT","MAIN GROUP",2,"2","ACADEMIC","OWNED","AER","UGB","91.40","1813800","1813800",42.361073927,-71.092349797200001,766341.43467700004,2956867.8046599901,"38","SHERMAN M. FAIRCHILD","FAIRCHILD BUILDING (38)",12-APR-71,,01-OCT-73,01-JAN-15,329
"39-201506","201506","39","39","","","","Stanley Gordon Brown Building",75808.22,39408.97,29949.69,"MIT","MAIN GROUP",2,"2","ACADEMIC","OWNED","AER","UGB","91.10","1813900","1813900",42.360856655699898,-71.092730980599896,766238.79191899905,2956788.13444999,"39","GORDON STANLEY BROWN","BROWN BUILDING",01-AUG-66,,31-DEC-68,01-JAN-15,253
"41-201506","201506","41","41","","","","Building 41",26078.68,20161.34,4267.86,"MIT","MAIN GROUP",2,"2","ACADEMIC","OWNED","AER","UGB","61.20","1814100","1814100",42.360760073199899,-71.0941602993,765852.661998,2956751.0965800001,"41","","BUILDING 41",31-DEC-15,,31-DEC-17,01-JAN-15,106
"42-201506","201506","42","42","","","","William R. Dickson Cogeneration Plant",79050.49,4380,67876.13,"MIT","MAIN GROUP",0,"0","SERVICE","OWNED","OTH","UGF1","64.80","1814200","1814200",42.361105970300002,-71.0935165170999,766026.05418700003,2956877.9774199901,"42","","COGENERATION PLANT",31-DEC-15,,31-DEC-16,01-JAN-15,80
"43-201506","201506","43","43","","","","Power Plant Annex",10373.95,5443.11,4097.66,"MIT","MAIN GROUP",0,"0","SERVICE","OWNED","OTH","UGF1","30.50","","",42.361144933600002,-71.093211498399896,766108.42287899903,2956892.56905,"43","","POWER PLANT ANNEX",31-DEC-14,,01-AUG-16,01-JAN-15,35
"44-201506","201506","44","44","","","","Cyclotron",16118.61,11616.29,2717.2,"MIT","MAIN GROUP",2,"2","ACADEMIC","OWNED","AER","UGB","29.50","1814400","1814400",42.361606785100001,-71.0924707402,766307.82008600002,2957061.8328100001,"44","","CYCLOTRON",31-DEC-38,,31-DEC-39,01-JAN-15,48
"46-201506","201506","46","46","","","","Brain & Cognitive Sciences Complex",418662.59,218530.21,152699.33,"MIT","MAIN GROUP",2,"2","ACADEMIC","OWNED","AER","(NULL)","136.40","1814600","1814600",42.362327773499899,-71.091642943400004,766530.28537900001,2957325.6455700002,"46","","BCSC",25-APR-03,,01-SEP-05,01-JAN-15,1401
"48-201506","201506","48","48","","","","Ralph M Parsons Laboratory For Water Resources & Hydrodynamics",57227.15,38567.88,11260.64,"MIT","MAIN GROUP",2,"2","ACADEMIC","OWNED","AER","UGB","64.00","1814800","1814800",42.362432493100002,-71.090665238,766794.33740199904,2957365.0742299901,"48","RALPH M. PARSONS","PARSONS LABORATORY",31-DEC-49,,31-DEC-51,01-JAN-15,153
"50-201506","201506","50","50","","","","Walker Memorial",73703.27,46452.51,20719.31,"MIT","MAIN GROUP",2,"2","SERVICE","OWNED","STAC","UGA3","80.50","1342002","1342002",42.359362410700001,-71.0883196005,767433.66957400006,2956249.3249900001,"50","FRANCIS AMASA WALKER","WALKER MEMORIAL",01-JAN-16,,01-SEP-17,01-JAN-15,200
"51-201506","201506","51","51","","","","Walter C Wood Sailing Pavilion",5889.33,4450.4,909.69,"MIT","MAIN GROUP",2,"2","SERVICE","OWNED","STAC","UGA3","21.30","1815100","1815100",42.358517055500002,-71.087730350800001,767594.41677799902,2955942.02996,"51","WALTER C. WOOD","WOOD SAILING PAVILION",31-DEC-36,,31-DEC-37,01-JAN-15,24
"54-201506","201506","54","54","","","","Cecil And Ida Green Building",129397.16,69172.03,43587.86,"MIT","MAIN GROUP",2,"2","ACADEMIC","OWNED","AER","UGBA3","275.00","1815400","1815400",42.360323853600001,-71.089326129599897,767159.94479500002,2956598.38283,"54","CECIL HOWARD & IDA FLANSBURGH GREEN","GREEN BUILDING",01-JAN-62,,01-JUL-64,01-JAN-15,571
"56-201506","201506","56","56","","","","Uncas A Whitaker Building",143681.84,78129.65,50261.23,"MIT","MAIN GROUP",2,"2","ACADEMIC","OWNED","AER","UGB","118.80","1815600","1815600",42.360699525199898,-71.089862504600006,767014.32081099902,2956734.58778999,"56","UNCAS A. & HELEN F. WHITAKER","WHITAKER BUILDING",01-SEP-63,,01-APR-65,01-JAN-15,462
"57-201506","201506","57","57","","","","MIT Alumni Pool",39121.04,22725.98,10516.52,"MIT","MAIN GROUP",2,"2","SERVICE","OWNED","STAC","UGA3","41.10","1815700","1815700",42.3611422938,-71.090140009199899,766938.54517199902,2956895.58099999,"57","","MIT ALUMNI POOL",01-JUL-39,,01-MAY-40,01-JAN-15,52
"62-201506","201506","62","62","","","","Alumni Houses: Munroe Hayden Wood",77154,50572.78,18936.55,"MIT","MAIN GROUP",2,"2","RESIDENT","OWNED","DHOA","UGR2","51.50","1346200","1346200",42.3602292035999,-71.088682904600006,767333.95523299905,2956564.7278900002,"62","JAMES P. MUNROE, HENRY R. HAYDEN, KENNETH F. WOOD","ALUMNI HOUSES: MUNROE HAYDEN WOOD",01-MAR-30,,01-SEP-31,01-JAN-15,0
"64-201506","201506","64","64","","","","Alumni Houses: Walcott Bemis Goodale",73432.63,48459.39,17436.67,"MIT","MAIN GROUP",2,"2","RESIDENT","OWNED","DHOA","UGR2","52.30","","",42.360404624799898,-71.088141156600003,767480.06446000002,2956629.36143,"64","ALBERT F. BEMIS, WILLIAM W. WALCOTT, CHARLES WARREN GOODALE","EAST CAMPUS: WALCOTT BEMIS GOODALE",01-SEP-23,,01-APR-24,01-JAN-15,0
"66-201506","201506","66","66","","","","Ralph Landau Building",133773.17,71007.41,47767.86,"MIT","MAIN GROUP",2,"2","ACADEMIC","OWNED","AER","UGBA3","74.30","1816600","1816600",42.360920155499898,-71.089029250099898,767239.13493399904,2956816.0739500001,"66","RALPH LANDAU","LANDAU BUILDING",01-AUG-73,,31-DEC-76,01-JAN-15,328
"68-201506","201506","68","68","","","","David H. Koch Biology Building",260374,155877.11,80655.18,"MIT","MAIN GROUP",2,"2","ACADEMIC","OWNED","AER","UGB","104.80","1816800","1816800",42.361621667199898,-71.088638563999893,767343.49146299902,2957072.2273900001,"68","","KOCH BIOLOGY BUILDING",01-APR-91,,07-OCT-94,01-JAN-15,975
"6B-201506","201506","6B","6B","","","","Solvent Storage",1680.39,643.66,874.79,"MIT","MAIN GROUP",0,"0","SERVICE","OWNED","AER","UGHH","11.70","1810600","1810600",42.359410918400002,-71.090674839599899,766797.02685999905,2956263.9386900002,"06B","","SOLVENT STORAGE",31-DEC-20,,31-DEC-21,01-JAN-15,4
"6C-201506","201506","6C","6C","","","","PDSI",51146.78,16126.28,27824.36,"MIT","MAIN GROUP",2,"2","ACADEMIC","OWNED","AER","UGE","92.00","1810600","1810600",42.359672940800003,-71.090836171800007,766752.96512900002,2956359.21569,"06C","","BUILDING 6C",01-MAY-07,,01-MAY-07,01-JAN-15,117
"76-201506","201506","76","76","","","","David H. Koch Institute For Integrative Cancer Research",367688.6,200729.84,124585.07,"MIT","MAIN GROUP",2,"2","ACADEMIC","OWNED","AER","(NULL)","0.00","1810700","1810700",42.3622958196,-71.0892756273999,767170.13363099901,2957317.0729999901,"76","","D H KOCH IN FICR",,,,01-JAN-15,923
"7A-201506","201506","7A","7A","","","","Rotch Library Extension",18501.98,14974.7,2388.47,"MIT","MAIN GROUP",2,"2","ACADEMIC","OWNED","AER","UGA3","77.00","1810700","1810700",42.359495924599898,-71.093193667899897,766116.108029,2956291.6597199901,"07A","","ROTCH LIBRARY EXTENSION",31-DEC-89,,11-JUL-90,01-JAN-15,75
"E1-201506","201506","E1","E1","","","","Gray House (Formerly President's House)",18642.53,11190.61,4967.95,"MIT","EAST",1,"1","RESIDENT","OWNED","AER","UGR4","52.00","1820100","1820100",42.3596024954999,-71.086964293400001,767799.54882200004,2956338.5876600002,"E01","","GRAY HOUSE",01-JUL-13,,01-JUL-17,01-JAN-15,139
"E2-201506","201506","E2","E2","","","","Senior House",64670.53,36222.25,18156.46,"MIT","EAST",2,"2","RESIDENT","OWNED","DHOA","UGR2","63.70","1346000","1346000",42.359955651999897,-71.086867012599896,767825.21787099901,2956467.41243,"E02","WARE, ATKINSON,RUNKLE,CRAFTS,NICHOLS,HOLMAN","SENIOR HOUSE",01-JUL-13,,01-JUL-16,01-JAN-15,314
"N4-201506","201506","N4","N4","","","","Albany Street Parking Garage",143032.14,129868.34,5780.48,"MIT","NORTH",2,"2","SERVICE","OWNED","GAR","UGS2","56.30","1850400","1850400",42.362034286799897,-71.092780364700005,766223.39594700001,2957217.2235699901,"N04","","ALBANY GARAGE",31-DEC-66,,01-OCT-66,01-JAN-15,36
"N9-201506","201506","N9","N9","","","","Superconducting Generator Test Facility",5957.13,5352.27,153.75,"MIT","NORTH",1,"1","ACADEMIC","OWNED","AER","UGB","32.70","1850900","1850900",42.360953206300003,-71.095193773700004,765573.01373000001,2956820.1508900002,"N09","","SUPERCONDUCTING TEST FACILITY",,,31-DEC-78,01-JAN-15,14
"W1-201506","201506","W1","W1","","","","Fariborz Maseeh Hall",189693.16,107518.76,43357.57,"MIT","WEST",2,"2","RESIDENT","OWNED","DHOA","UGR2","74.50","1345000","1345000",42.357617631099899,-71.093510699800007,766033.68489899905,2955606.7632300002,"W01","AVERY ALLEN ASHDOWN","FARIBORZ MASEEH HALL",31-DEC-00,31-DEC-37,31-DEC-39,01-JAN-15,555
"W2-201506","201506","W2","W2","","","","Building W2",9599.32,5252.17,2749.42,"MIT","WEST",2,"2","RESIDENT","OWNED","DHOA","UGBR1","37.10","","",42.357256310799897,-71.093840904399897,765945.06404600001,2955474.6658000001,"W02","","BUILDING W2",31-DEC-00,01-JUL-63,31-DEC-67,01-JAN-15,64
"W4-201506","201506","W4","W4","","","","Stanley McCormick Hall",128989.56,66792.4,43493.47,"MIT","WEST",2,"2","RESIDENT","OWNED","DHOA","UGR2","89.20","1346800","1346800",42.357183004200003,-71.094423015199894,765787.85673300002,2955447.2028800002,"W04","STANLEY MCCORMICK","MCCORMICK HALL",01-MAR-62,,01-SEP-63,01-JAN-15,562
"W5-201506","201506","W5","W5","","","","Ida Flansburgh Green Hall",19010.96,9843.29,5586.45,"MIT","WEST",2,"2","RESIDENT","OWNED","DHOA","UGR2","53.20","1345500","1345500",42.356918931899898,-71.095101036399896,765605.05647299904,2955350.0988500002,"W05","IDA FLANSBURGH GREEN","GREEN HALL",31-DEC-01,01-JUL-63,31-DEC-70,01-JAN-15,110
"W7-201506","201506","W7","W7","","","","Everett Moore Baker House",133099.42,77423.81,41632.04,"MIT","WEST",2,"2","RESIDENT","OWNED","DHOA","UGR2","76.40","1345300","1345300",42.356697834999899,-71.0957921822,765418.63264600001,2955268.6408000002,"W07","EVERETT MOORE BAKER","BAKER HOUSE",01-OCT-47,,31-DEC-49,01-JAN-15,497
"W8-201506","201506","W8","W8","","","","Harold Whitworth Pierce Boathouse",21710.72,16613.48,3721.46,"MIT","WEST",2,"2","SERVICE","OWNED","STAC","UGA3","24.10","1830800","1830800",42.355312426200001,-71.096827205300002,765141.26844400004,2954762.4460900002,"W08","HAROLD WHITWORTH PIERCE","PIERCE BOATHOUSE",01-JUN-65,,31-DEC-67,01-JAN-15,34
"W79-201506","201506","W79","W79","","","","Simmons Hall",191189.7,94212.61,67667.38,"MIT","WEST",2,"2","RESIDENT","OWNED","DHOA","UGR2","100.60","1347600","1347600",42.3571086237,-71.1015208046,763869.57442700001,2955411.0550799901,"W79","RICHARD P. SIMMONS '53","SIMMONS HALL",01-DEC-00,,20-AUG-02,01-JAN-15,909
"W84-201506","201506","W84","W84","","","","Tang Residence Hall",152314.7,108737.65,26785.79,"MIT","WEST",2,"2","RESIDENT","OWNED","DHOA","UGR2","240.40","1348500","1348500",42.354351753400003,-71.103479493899897,763344.84496699902,2954403.9287700001,"W84","PING YUAN TANG","TANG HALL",16-NOV-70,,31-DEC-73,01-JAN-15,306
"W85-201506","201506","W85","W85","","","","Westgate  Married Student Housing",115603.99,84270.83,25211.66,"MIT","WEST",2,"2","RESIDENT","OWNED","DHOA","UGR2","167.30","1348000","1348000",42.354997759200003,-71.103257782,763403.67751399905,2954639.6248699902,"W85","","WESTGATE",01-JAN-62,,01-AUG-63,01-JAN-15,327
"W89-201506","201506","W89","W89","","","","MIT Police",14909.35,7669.85,4956.87,"MIT","WEST",0,"0","SERVICE","OWNED","AER","UGB","27.90","1838900","1838900",42.355538582599898,-71.104673289900006,763020.16355699894,2954834.9353700001,"W89","","MIT POLICE",31-DEC-48,19-JAN-01,08-MAR-06,01-JAN-15,83
"W91-201506","201506","W91","W91","","","","Information Systems Operations",35748.48,20110.58,11871.58,"MIT","WEST",1,"1","SERVICE","OWNED","AER","UGB","40.70","1839100","1839100",42.354323555400001,-71.104426111099897,763089.02705499902,2954392.4647400002,"W91","","INFORMATION SYSTEMS OPERATIONS",31-DEC-47,,31-DEC-49,01-JAN-15,170
"W92-201506","201506","W92","W92","","","","Building W92",86521.66,72020.11,7904.77,"MIT","WEST",2,"2","ACADEMIC","OWNED","AER","UGB","32.10","1839200","1839200",42.354920429499899,-71.1046169034,763036.448508,2954609.73853999,"W92","","BUILDING W92",,,01-JUL-99,01-JAN-15,360
"W98-201506","201506","W98","W98","","","","600 Memorial Drive",82480.74,47668.89,25043.7,"MIT","WEST",2,"2","ACADEMIC","OWNED","AER","(NULL)","91.00","1839800","1839800",42.3539554133,-71.1066451465,762489.85176200001,2954255.5327300001,"W98","","BUILDING W98",,30-JUN-08,,01-JAN-15,511
"EE19-201506","201506","EE19","EE19","","","","Building EE19",20514.89,18402.12,117.63,"MIT","",1,"1","ACADEMIC","LEASED","(NULL)","(NULL)","0.00","","",,,,,"EE19","","BUILDING EE19",21-MAR-14,,,01-JAN-15,145
"EE20-201506","201506","EE20","EE20","","","","Building EE20",31093.51,28090.6,424.97,"MIT","EASTEAST",3,"3","ACADEMIC","LEASED","AER","UGB","0.00","","",,,,,"EE20","","BUILDING EE20",21-MAR-14,,,01-JAN-15,143
"N16A-201506","201506","N16A","N16A","","","","Building N16A",9766.11,0,8652.37,"MIT","NORTH",0,"0","SERVICE","OWNED","OTH","UGU","57.70","","",42.3612415983999,-71.0943815255999,765792.037381,2956926.28971999,"N16A","","BUILDING N16A",,,,01-JAN-15,11
"N16B-201506","201506","N16B","N16B","","","","Fire Pump House",1249.72,0,1160.58,"MIT","NORTH",0,"0","SERVICE","OWNED","OTH","UGU","","","",42.361240843600001,-71.094226825899895,765833.84857100004,2956926.2135200002,"N16B","","FIRE PUMP ROOM",,,,01-JAN-15,5
"N16C-201506","201506","N16C","N16C","","","","Building N16C",2925.3,155.39,2705.41,"MIT","NORTH",0,"0","SERVICE","OWNED","OTH","UGU","","","",42.361098659500001,-71.094495758400001,765761.41181399894,2956874.05308,"N16C","","BUILDING N16C",,,,01-JAN-15,3
"NE18-201506","201506","NE18","NE18","","","","255 Main Street",33044.91,28995.07,260.02,"MIT","NORTHEAST",2,"2","ACADEMIC","LEASED","AER","UGB","194.70","1861800","1861800",42.3626472601999,-71.085173263499897,768278.217925,2957450.51042999,"NE18","","255 MAIN STREET",,,01-APR-01,01-JAN-15,196
"NE25-201506","201506","NE25","NE25","","","","355 Main Street",15375.72,14460.12,37.84,"MIT","NORTHEAST",2,"2","SERVICE","LEASED","AER","UGB","177.20","1862500","1862500",42.3628074388999,-71.087506279799896,767647.41687700001,2957505.82516,"NE25","","355 MAIN STREET",,,01-JUL-96,01-JAN-15,108
"NE35-201506","201506","NE35","NE35","","","","145 Broadway",9525.85,8264.35,0,"MIT","NORTHEAST",2,"2","ACADEMIC","LEASED","AER","(NULL)","0.00","","",42.364912106200002,-71.0887788844,922.3372036854776,922.3372036854776,"NE35","","145 BROADWAY",21-MAR-14,,,01-JAN-15,43
"NE45-201506","201506","NE45","NE45","","","","300 Technology Square",8049.06,4586.56,0,"MIT","",2,"2","ACADEMIC","LEASED","AER","(NULL)","0.00","","",,,,,"NE45","","300 TECHNOLOGY SQUARE",21-MAR-14,,,01-JAN-15,24
"NE46-201506","201506","NE46","NE46","","","","400 Technology Square",9215.4,7989.19,239.41,"MIT","",2,"2","ACADEMIC","LEASED","AER","(NULL)","0.00","","",,,,,"NE46","","400 TECHNOLOGY SQUARE",25-APR-14,,,01-JAN-15,36
"NE47-201506","201506","NE47","NE47","","","","500 Technology Square",68295.01,58587.97,2086.13,"MIT","NORTHEAST",2,"2","ACADEMIC","LEASED","AER","(NULL)","148.00","1854500","1854500",42.363464579400002,-71.092581005300005,766274.785684,2957738.7084300001,"NE47","","500 TECHNOLOGY SQUARE",,,,01-JAN-15,232
"NE48-201506","201506","NE48","NE48","","","","700 Technology Square",8043.73,6437.3,797.4,"MIT","NORTHEAST",2,"2","ACADEMIC","LEASED","AER","(NULL)","84.40","1854800","1854800",42.364031195700001,-71.092727468199897,766234.21735199902,2957945.0062199901,"NE48","","700 TECHNOLOGY SQUARE",,,,01-JAN-15,52
"NE49-201506","201506","NE49","NE49","","","","600 Technology Square",71648.86,66681.41,349.28,"MIT","NORTHEAST",2,"2","SERVICE","LEASED","AER","(NULL)","84.90","1854900","1854900",42.363390018099899,-71.093118948699896,766129.53298000002,2957710.84277,"NE49","","600 TECHNOLOGY SQUARE",,,,01-JAN-15,461
"NE83-201506","201506","NE83","NE83","","","","Building 300",20795.59,17407.77,873.91,"MIT","",2,"2","ACADEMIC","LEASED","AER","UGB","0.00","","",,,,,"NE83","","BUILDING 300",25-JUN-14,,25-JUN-14,01-JAN-15,77
"NW10-201506","201506","NW10","NW10","","","","Edgerton House",132529.78,82366.87,31273.3,"MIT","NORTHWEST",2,"2","RESIDENT","OWNED","DHOA","UGR2","56.50","1347800","1347800",42.360320157499899,-71.098137294500006,764778.56585200003,2956585.6932899901,"NW10","DR. HAROLD E. EDGERTON","EDGERTON HOUSE",31-DEC-22,,,01-JAN-15,250
"NW12-201506","201506","NW12","NW12","","","","Nuclear Reactor Laboratory",49933.39,34857.85,9710.88,"MIT","NORTHWEST",0,"0","ACADEMIC","OWNED","AER","UGB","47.30","1841200","1841200",42.360103050299898,-71.096863122399895,765123.30905100005,2956508.1999599901,"NW12","","NUCLEAR REACTOR LAB",31-DEC-37,31-DEC-55,31-DEC-55,01-JAN-15,166
"NW13-201506","201506","NW13","NW13","","","","Building NW13",61259.54,46638.16,9575.28,"MIT","NORTHWEST",2,"2","ACADEMIC","OWNED","AER","UGB","28.30","1841300","1841300",42.359884899999898,-71.097361865600007,764988.88910499902,2956428.0648400001,"NW13","","BUILDING NW13",21-DEC-17,01-JAN-60,31-DEC-63,01-JAN-15,141
"NW14-201506","201506","NW14","NW14","","","","Francis Bitter Magnet Laboratory (NW14)",144973.33,103477.64,30884.31,"MIT","NORTHWEST",2,"2","ACADEMIC","OWNED","AER","UGB","75.70","1841400","1841400",42.359632077500002,-71.097898841900005,764844.19425599906,2956335.2465900001,"NW14","DR. FRANCIS BITTER","FRANCIS BITTER MAGNET LAB (NW14)",31-DEC-13,22-DEC-58,01-SEP-62,01-JAN-15,399
"NW15-201506","201506","NW15","NW15","","","","Francis Bitter Magnet Laboratory (NW15)",16137.29,14768.86,277.79,"MIT","NORTHWEST",2,"2","ACADEMIC","OWNED","AER","UGF1","34.20","1841500","1841500",42.3593490344999,-71.098256602700005,764747.98736300005,2956231.64432,"NW15","DR. FRANCIS BITTER","FRANCIS BITTER MAGNET LAB (NW15)",01-DEC-61,,31-DEC-62,01-JAN-15,11
"NW16-201506","201506","NW16","NW16","","","","Plasma Science And Fusion Center (NW16)",50148.39,31346.41,14440.37,"MIT","NORTHWEST",2,"2","ACADEMIC","OWNED","AER","UGB","34.00","1841600","1841600",42.360032100799899,-71.098715324899899,764622.83609600004,2956479.9839900001,"NW16","","PLASMA SCIENCE & FUSION CENTER (NW16)",01-JUN-80,01-APR-66,01-MAY-81,01-JAN-15,171
"NW17-201506","201506","NW17","NW17","","","","Plasma Science And Fusion Center (NW17)",45397.46,27622.94,12314.36,"MIT","NORTHWEST",2,"2","ACADEMIC","OWNED","AER","UGB","33.80","1841700","1841700",42.359856375900002,-71.099142437599895,764507.70102100004,2956415.4034799901,"NW17","","PLASMA SCIENCE & FUSION CENTER (NW17)",31-DEC-23,,,01-JAN-15,154
"NW20-201506","201506","NW20","NW20","","","","Albany Street Generator Shelter",5784.7,5291.98,0,"MIT","NORTHWEST",2,"2","ACADEMIC","OWNED","AER","UGF1","28.00","1842000","1842000",42.359283155599897,-71.098466376600001,764691.40409500001,2956207.3697100002,"NW20","","ALBANY ST GENERATOR SHELTER",,,,01-JAN-15,10
"NW21-201506","201506","NW21","NW21","","","","Plasma Science And Fusion Center (NW21)",120136.72,65083.46,44698.29,"MIT","NORTHWEST",2,"2","ACADEMIC","OWNED","AER","UGB","43.60","1842100","1842100",42.359063597199899,-71.099146290099895,764508.01709900005,2956126.4939299901,"NW21","","PLASMA SCIENCE & FUSION CENTER (NW21)",31-DEC-99,01-APR-80,01-MAY-80,01-JAN-15,149
"NW22-201506","201506","NW22","NW22","","","","Plasma Science And Fusion Center (NW22)",50118.21,39243.99,5534.67,"MIT","NORTHWEST",2,"2","ACADEMIC","OWNED","AER","UGB","33.70","1842200","1842200",42.359638620600002,-71.099723132400001,764351.12835400004,2956335.3119899901,"NW22","","PLASMA SCIENCE & FUSION CENTER (NW22)",,,17-JAN-92,01-JAN-15,152
"NW30-201506","201506","NW30","NW30","","","","224 Albany Street",85812.19,50160.21,23182.63,"MIT","NORTHWEST",2,"2","RESIDENT","OWNED","DHOA","UGR2","75.00","1348100","1348100",42.3586472548999,-71.099972867000005,764285.32651200006,2955973.7215900002,"NW30","","224 ALBANY STREET",31-DEC-04,01-OCT-58,01-NOV-58,01-JAN-15,252
"12A-201506","201506","12A","12A","","","","Building 12A",1122.97,451.37,463.83,"MIT","MAIN GROUP",0,"0","SERVICE","OWNED","AER","UGHH","13.00","1811200","1811200",42.360144325199897,-71.091169989899896,766661.920101,2956530.5650800001,"12A","","WASTE CHEMICAL STORAGE",31-DEC-16,,31-DEC-17,01-JAN-15,3
"14E-201506","201506","14E","14E","14","HAYDEN MEMORIAL LIBRARY","Charles Hayden Memorial Library","Charles Hayden Memorial Library (East Wing)",21022.71,15903.62,3372.01,"MIT","MAIN GROUP",2,"2","ACADEMIC","OWNED","AER","(NULL)","0.00","","",,,,,"14E","","HAYDEN MEMORIAL LIBRARY (E)",,,,01-JAN-15,90
"14N-201506","201506","14N","14N","14","HAYDEN MEMORIAL LIBRARY","Charles Hayden Memorial Library","Charles Hayden Memorial Library (North Wing)",37006.11,20979.04,11550.51,"MIT","MAIN GROUP",2,"2","ACADEMIC","OWNED","AER","(NULL)","","","",,,,,"14N","","HAYDEN MEMORIAL LIBRARY (N)",,,,01-JAN-15,188
"14S-201506","201506","14S","14S","14","HAYDEN MEMORIAL LIBRARY","Charles Hayden Memorial Library","Charles Hayden Memorial Library (South Wing)",48622.24,34500.48,10286.49,"MIT","MAIN GROUP",2,"2","ACADEMIC","OWNED","AER","(NULL)","","","",,,,,"14S","","HAYDEN MEMORIAL LIBRARY (S)",,,,01-JAN-15,118
"14W-201506","201506","14W","14W","14","HAYDEN MEMORIAL LIBRARY","Charles Hayden Memorial Library","Charles Hayden Memorial Library (West Wing)",5013.14,2850.15,1777.63,"MIT","MAIN GROUP",2,"2","ACADEMIC","OWNED","AER","(NULL)","","","",,,,,"14W","","HAYDEN MEMORIAL LIBRARY (W)",,,,01-JAN-15,16
"32P-201506","201506","32P","32P","","","","Ray and Maria Stata Center Garage",239353.28,219268.15,10269.82,"MIT","MAIN GROUP",2,"2","SERVICE","OWNED","GAR","(NULL)","","1813201","1813201",,,,,"32P","RAY STATA '57","STATA CENTER GARAGE",,,02-JUN-03,01-JAN-15,32
"42T-201506","201506","42T","42T","42","COGENERATION PLANT","William R. Dickson Cogeneration Plant","Building 42 Tunnel",11247.27,0,11247.27,"MIT","",0,"0","SERVICE","OWNED","OTH","UGF1","0.00","1814200","1814200",,,,,"42T","","BUILDING 42 TUNNEL",31-DEC-15,,31-DEC-16,01-JAN-15,1
"62H-201506","201506","62H","62H","62","ALUMNI HOUSES: MUNROE HAYDEN WOOD","Alumni Houses: Munroe Hayden Wood","Alumni Houses: Hayden",26411.82,16932.94,6760.5,"MIT","MAIN GROUP",2,"2","RESIDENT","OWNED","DHOA","(NULL)","","1346200","1346200",,,,,"62H","HENRY R. HAYDEN","ALUMNI HOUSES: HAYDEN",,,,01-JAN-15,117
"62M-201506","201506","62M","62M","62","ALUMNI HOUSES: MUNROE HAYDEN WOOD","Alumni Houses: Munroe Hayden Wood","Alumni Houses: Munroe",25568.41,18125.96,4960.76,"MIT","MAIN GROUP",2,"2","RESIDENT","OWNED","DHOA","(NULL)","","","",,,,,"62M","JAMES P. MUNROE","ALUMNI HOUSES: MUNROE",,,,01-JAN-15,102
"62W-201506","201506","62W","62W","62","ALUMNI HOUSES: MUNROE HAYDEN WOOD","Alumni Houses: Munroe Hayden Wood","Alumni Houses: Wood",25173.77,15513.88,7215.29,"MIT","MAIN GROUP",2,"2","RESIDENT","OWNED","DHOA","(NULL)","","","",,,,,"62W","KENNETH F. WOOD","ALUMNI HOUSES: WOOD",,,,01-JAN-15,111
"64B-201506","201506","64B","64B","64","EAST CAMPUS: WALCOTT BEMIS GOODALE","Alumni Houses: Walcott Bemis Goodale","Alumni Houses: Bemis",23656.67,14584.37,6483.26,"MIT","MAIN GROUP",2,"2","RESIDENT","OWNED","DHOA","(NULL)","","","",,,,,"64B","ALBERT F. BEMIS","EAST CAMPUS: BEMIS",,,,01-JAN-15,114
